"city",latitude,longitude,population
"Ras al-Khaimah",25.78953,55.9432,115949
"Dubai",25.0657,55.17128,1137347
"Sharjah",25.33737,55.41206,543733
"Al Ain",24.19167,55.76056,408733
"Ajman",25.41111,55.43504,226172
"Abu Dhabi",24.46667,54.36667,603492
"Mazār-e Sharīf",36.70904,67.11087,303282
"Kunduz",36.72895,68.857,161902
"Kandahār",31.61332,65.71013,391190
"Kabul",34.52813,69.17233,3043532
"Jalālābād",34.42647,70.45153,200331
"Herāt",34.34817,62.19967,272806
"Ghazni",33.55391,68.42096,141000
"Gardēz",33.59744,69.22592,103601
"Balkh",36.75635,66.8972,114883
"Baghlān",36.13068,68.70829,108449
"Elbasan",41.1125,20.08222,100903
"Tirana",41.3275,19.81889,374801
"Durrës",41.32306,19.44139,122034
"Yerevan",40.18111,44.51361,1093485
"Vanadzor",40.80456,44.4939,101098
"Gyumri",40.7942,43.84528,148381
"N’dalatando",-9.29782,14.91162,383100
"Luanda",-8.83682,13.23432,2776168
"Lubango",-14.91717,13.4925,102541
"Lobito",-12.3644,13.53601,207932
"Cuito",-12.38333,16.93333,113624
"Huambo",-12.77611,15.73917,226145
"Benguela",-12.57626,13.40547,151226
"Villa Lugano",-34.67907,-58.47263,114000
"Tandil",-37.32167,-59.13316,104325
"Resistencia",-27.46056,-58.98389,387158
"Quilmes",-34.72418,-58.25265,518788
"Posadas",-27.36708,-55.89608,323739
"Morón",-34.65344,-58.61975,319934
"Mar del Plata",-38.00228,-57.55754,553935
"La Plata",-34.92145,-57.95453,694167
"Formosa",-26.17753,-58.17814,221383
"Corrientes",-27.4806,-58.8341,339067
"Concordia",-31.39296,-58.02089,145210
"Buenos Aires",-34.61315,-58.37723,13076300
"Santiago del Estero",-27.79511,-64.26149,354692
"Santa Rosa",-36.61667,-64.28333,111424
"Santa Fe de la Vera Cruz",-31.63333,-60.7,489505
"San Salvador de Jujuy",-24.19457,-65.29712,305891
"San Rafael",-34.61772,-68.33007,109163
"San Nicolás de los Arroyos",-33.33578,-60.22523,127742
"San Miguel de Tucumán",-26.82414,-65.2226,781023
"San Luis",-33.29501,-66.33563,183982
"San Juan",-31.5375,-68.53639,447048
"San Fernando del Valle de Catamarca",-28.46957,-65.78524,188812
"Salta",-24.7859,-65.41166,512686
"Rosario",-32.94682,-60.63932,1173533
"Río Cuarto",-33.13067,-64.34992,153757
"Paraná",-31.73197,-60.5238,262295
"Neuquén",-38.95161,-68.0591,242092
"Mendoza",-32.89084,-68.82717,876884
"La Rioja",-29.41105,-66.85067,162620
"Córdoba",-31.4135,-64.18105,1428214
"Comodoro Rivadavia",-45.86413,-67.49656,140850
"Bahía Blanca",-38.71959,-62.27243,276546
"Vienna",48.20849,16.37208,1691468
"Salzburg",47.79941,13.04399,150269
"Linz",48.30639,14.28611,181162
"Innsbruck",47.26266,11.39454,112467
"Graz",47.06667,15.45,222326
"Rockingham",-32.27682,115.72978,108022
"Perth",-31.95224,115.8614,1896548
"Darwin",-12.46113,130.84185,129062
"Adelaide",-34.92866,138.59863,1225235
"Townsville",-19.26639,146.80569,196219
"Toowoomba",-27.56056,151.95386,131258
"Sydney",-33.86785,151.20732,4627345
"Newcastle",-32.92715,151.77647,308308
"Melbourne",-37.814,144.96332,4246375
"Launceston",-41.43876,147.13467,106153
"Hobart",-42.87936,147.32941,216656
"Gold Coast",-28.00029,153.43088,591473
"Geelong",-38.14711,144.36069,226034
"Wollongong",-34.424,150.89345,292190
"Canberra",-35.28346,149.12807,367752
"Cairns",-16.92304,145.76625,153075
"Brisbane",-27.46794,153.02809,2189878
"Bendigo",-36.75818,144.28024,100617
"Logan City",-27.63917,153.10944,282673
"Lankaran",38.75428,48.85062,240300
"Sumqayıt",40.58972,49.66861,265150
"Ganja",40.68278,46.36056,313300
"Baku",40.37767,49.89201,1116513
"Zenica",44.20169,17.90397,164423
"Tuzla",44.53842,18.66709,142486
"Sarajevo",43.84864,18.35644,696731
"Mostar",43.34333,17.80806,104518
"Banja Luka",44.77583,17.18556,221106
"Tungi",23.89154,90.40232,337579
"Sylhet",24.89904,91.87198,237000
"Jamālpur",24.91965,89.94812,167900
"Sātkhira",22.70817,89.07185,128918
"Sirājganj",24.45771,89.70802,127481
"Narsingdi",23.92298,90.71768,281080
"Shāhzādpur",24.17687,89.5988,102420
"Rājshāhi",24.374,88.60114,700133
"Nārāyanganj",23.61352,90.50298,223622
"Nāgarpur",24.05783,89.87696,238422
"Mymensingh",24.75636,90.40646,225126
"Comilla",23.46186,91.18503,389411
"Rangpur",25.74664,89.25166,343122
"Kushtia",23.9028,89.11943,135724
"Dhaka",23.7104,90.40744,10356500
"Bhairab Bāzār",24.0524,90.9764,105457
"Pār Naogaon",24.80418,88.94875,192464
"Farīdpur",23.60612,89.84064,112187
"Dinājpur",25.62745,88.63779,206234
"Chittagong",22.3384,91.83168,3920222
"Cox’s Bāzār",21.45388,91.96765,253788
"Khulna",22.80979,89.56439,1342339
"Barisāl",22.70497,90.37013,202242
"Jessore",23.16971,89.21371,243987
"Pābna",24.00644,89.2372,186781
"Tāngāil",24.24984,89.91655,180144
"Bogra",24.85098,89.37108,210000
"Nawābganj",24.59025,88.27444,142361
"Sherpur",25.01881,90.01751,107419
"Saidpur",25.77769,88.89169,199422
"Namur",50.4669,4.86746,106284
"Liège",50.63373,5.56749,182597
"Gent",51.05,3.71667,231493
"Charleroi",50.41136,4.44448,200132
"Brussels",50.85045,4.34878,1019022
"Brugge",51.20892,3.22424,116709
"Antwerpen",51.21989,4.40346,459805
"Ouagadougou",12.36566,-1.53388,1086505
"Bobo-Dioulasso",11.17715,-4.2979,360106
"Varna",43.21667,27.91667,312770
"Stara Zagora",42.43278,25.64194,143431
"Sofia",42.69751,23.32415,1152556
"Ruse",43.85639,25.97083,156238
"Plovdiv",42.15,24.75,340494
"Pleven",43.41667,24.61667,118675
"Burgas",42.50606,27.46781,195966
"Manama",26.22787,50.58565,147074
"Bujumbura",-3.3822,29.3644,331700
"Porto-Novo",6.49646,2.60359,234168
"Parakou",9.33716,2.63031,163753
"Kandi",11.13417,2.93861,109701
"Djougou",9.70853,1.66598,237040
"Cotonou",6.36536,2.41833,780000
"Bohicon",7.17826,2.0667,125092
"Abomey-Calavi",6.44852,2.35566,385755
"Tarija",-21.53549,-64.72956,159269
"Sucre",-19.03332,-65.26274,224838
"Santa Cruz de la Sierra",-17.78629,-63.18117,1364389
"Potosí",-19.58361,-65.75306,141251
"Oruro",-17.98333,-67.15,208684
"La Paz",-16.5,-68.15,812799
"Cochabamba",-17.3895,-66.1568,900414
"Vitória de Santo Antão",-8.11806,-35.29139,107383
"Timon",-5.09417,-42.83667,124427
"Teresina",-5.08917,-42.80194,744512
"Sobral",-3.68611,-40.34972,157996
"São Luís",-2.52972,-44.30278,917237
"Santa Rita",-7.11389,-34.97806,119893
"Santarém",-2.44306,-54.70833,189047
"Recife",-8.05389,-34.88111,1478098
"Petrolina",-9.39861,-40.50083,194650
"Paulista",-7.94083,-34.87306,289971
"Parnamirim",-5.91556,-35.26278,150343
"Parnaíba",-2.90472,-41.77667,138008
"Olinda",-8.00889,-34.85528,366754
"Natal",-5.795,-35.20944,763043
"Mossoró",-5.1875,-37.34417,202005
"Maracanaú",-3.87667,-38.62556,193529
"Marabá",-5.38146,-49.13232,145860
"Maceió",-9.66583,-35.73528,954991
"Macapá",0.03889,-51.06639,338936
"Juazeiro do Norte",-7.21306,-39.31528,225230
"João Pessoa",-7.115,-34.86306,650883
"Jaboatão",-8.18028,-35.00139,702621
"Imperatriz",-5.52639,-47.49167,218106
"Garanhuns",-8.88202,-36.50216,110085
"Fortaleza",-3.71722,-38.54306,2400000
"Caxias",-4.85889,-43.35611,148072
"Caucaia",-3.73611,-38.65306,275019
"Castanhal",-1.29389,-47.92639,137406
"Caruaru",-8.28333,-35.97611,235371
"Campina Grande",-7.23056,-35.88111,348936
"Cabo",-8.28333,-35.03333,143105
"Belém",-1.45583,-48.50444,1407737
"Arapiraca",-9.7525,-36.66111,166562
"Araguaína",-7.19111,-48.20722,105019
"Ananindeua",-1.36556,-48.37222,433956
"Volta Redonda",-22.52306,-44.10417,249580
"Vitória da Conquista",-14.86611,-40.83944,253137
"Vitória",-20.31944,-40.33778,312656
"Vila Velha",-20.32972,-40.2925,394930
"Viamão",-30.08111,-51.02333,285269
"Várzea Paulista",-23.21139,-46.82833,110936
"Várzea Grande",-15.64667,-56.1325,249752
"Varginha",-21.55139,-45.43028,116571
"Uruguaiana",-29.75472,-57.08833,123480
"Uberlândia",-18.91861,-48.27722,563536
"Uberaba",-19.74833,-47.93194,260843
"Toledo",-24.71361,-53.74306,119313
"Teresópolis",-22.4167,-42.97822,123979
"Teófilo Otoni",-17.8575,-41.50528,101170
"Taubaté",-23.02639,-45.55528,251641
"Taboão da Serra",-23.62611,-46.79167,214523
"Suzano",-23.5425,-46.31083,283314
"Sumaré",-22.82194,-47.26694,227977
"Sorocaba",-23.50167,-47.45806,558862
"Sete Lagoas",-19.46583,-44.24667,201334
"Serra",-20.12861,-40.30778,394153
"Sapucaia",-29.83333,-51.15,130937
"São Vicente",-23.96306,-46.39194,324457
"São Paulo",-23.5475,-46.63611,10021295
"São Leopoldo",-29.76028,-51.14722,209229
"São José dos Pinhais",-25.5302,-49.20836,124224
"São José dos Campos",-23.17944,-45.88694,613764
"São José do Rio Preto",-20.81972,-49.37944,374699
"São José",-28.21171,-49.1632,200000
"São João de Meriti",-22.80389,-43.37222,454849
"São Carlos",-22.0175,-47.89083,205035
"São Caetano do Sul",-23.62306,-46.55111,136453
"São Bernardo do Campo",-23.69389,-46.565,743372
"Santos",-23.96083,-46.33361,411403
"Santo André",-23.66389,-46.53833,662373
"Santa Maria",-29.68417,-53.80694,249219
"Santa Luzia",-19.76972,-43.85139,243503
"Santa Cruz do Sul",-29.7175,-52.42583,106113
"Santa Bárbara d'Oeste",-22.75361,-47.41361,188000
"Salvador",-12.97111,-38.51083,2711840
"Rondonópolis",-16.47083,-54.63556,152912
"Rio Grande",-32.035,-52.09861,187838
"Rio de Janeiro",-22.90278,-43.2075,6023699
"Rio Claro",-22.41139,-47.56139,180147
"Ribeirão Preto",-21.1775,-47.81028,619746
"Ribeirão Pires",-23.71056,-46.41333,111888
"Ribeirão das Neves",-19.76694,-44.08667,406802
"Resende",-22.46889,-44.44667,111514
"Queimados",-22.71611,-43.55528,135741
"Presidente Prudente",-22.12556,-51.38889,209502
"Praia Grande",-24.00583,-46.40278,250027
"Pouso Alegre",-22.23,-45.93639,115201
"Porto Seguro",-16.44972,-39.06472,123173
"Porto Alegre",-30.03306,-51.23,1372741
"Ponta Grossa",-25.095,-50.16194,292177
"Poços de Caldas",-21.78778,-46.56139,146588
"Poá",-23.52806,-46.34472,107432
"Piracicaba",-22.72528,-47.64917,342209
"Pindamonhangaba",-22.92389,-45.46167,132218
"Petrópolis",-22.505,-43.17861,272691
"Pelotas",-31.77194,-52.3425,320674
"Patos de Minas",-18.57889,-46.51806,126234
"Passo Fundo",-28.26278,-52.40667,179529
"Paranaguá",-25.51626,-48.52537,141013
"Palhoça",-27.64528,-48.66778,122423
"Osasco",-23.5325,-46.79167,677856
"Novo Hamburgo",-29.67833,-51.13056,253841
"Nova Iguaçu",-22.75917,-43.45111,1002118
"Nova Friburgo",-22.28194,-42.53111,153361
"Nossa Senhora do Socorro",-10.855,-37.12611,163993
"Niterói",-22.88333,-43.10361,456456
"Nilópolis",-22.8075,-43.41389,147281
"Montes Claros",-16.735,-43.86167,332379
"Mogi-Gaucu",-22.3677,-46.94552,128865
"Mogi das Cruzes",-23.52278,-46.18833,325746
"Mauá",-23.66778,-46.46139,386069
"Maringá",-23.42528,-51.93861,311724
"Marília",-22.21389,-49.94583,212218
"Macaé",-22.37083,-41.78694,143029
"Luziânia",-16.2525,-47.95028,143601
"Londrina",-23.31028,-51.16278,471832
"Linhares",-19.39111,-40.07222,105075
"Limeira",-22.56472,-47.40167,289665
"Lages",-27.81611,-50.32611,164676
"Jundiaí",-23.18639,-46.88417,321589
"Juiz de Fora",-21.76417,-43.35028,470193
"Joinville",-26.30444,-48.84556,461304
"Jequié",-13.85875,-40.08512,127475
"Jaú",-22.29639,-48.55778,119206
"Jaraguá do Sul",-26.48611,-49.06667,130130
"Jandira",-23.5275,-46.9025,113605
"Jacareí",-23.30528,-45.96583,213110
"Itu",-23.26417,-47.29917,137586
"Itaquaquecetuba",-23.48611,-46.34833,336679
"Itapevi",-23.54889,-46.93417,201748
"Itapetininga",-23.59167,-48.05306,126243
"Itapecerica da Serra",-23.71694,-46.84917,151605
"Itajaí",-26.90778,-48.66194,155716
"Itaguaí",-22.85222,-43.77528,100752
"Itabuna",-14.78556,-39.28028,205660
"Itaboraí",-22.74444,-42.85944,182498
"Ipatinga",-19.46833,-42.53667,228746
"Indaiatuba",-23.08842,-47.2119,179911
"Ilhéus",-14.79364,-39.03949,155499
"Ibirité",-20.02194,-44.05889,141374
"Hortolândia",-22.85833,-47.22,203533
"Guarulhos",-23.46278,-46.53333,1169577
"Guarujá",-23.99306,-46.25639,310424
"Guaratinguetá",-22.81639,-45.1925,105880
"Guarapuava",-25.39048,-51.46541,150850
"Guarapari",-20.65367,-40.50204,100925
"Gravataí",-29.94218,-50.99278,238778
"Governador Valadares",-18.85111,-41.94944,250878
"Goiânia",-16.67861,-49.25389,1171195
"Franco da Rocha",-23.32167,-46.72694,108858
"Francisco Morato",-23.28167,-46.74528,171790
"Franca",-20.53861,-47.40083,305041
"Foz do Iguaçu",-25.54778,-54.58806,293523
"Florianópolis",-27.59667,-48.54917,412724
"Ferraz de Vasconcelos",-23.54083,-46.36861,167900
"Feira de Santana",-12.26667,-38.96667,481911
"Esmeraldas",-19.7625,-44.31389,103206
"Embu",-23.64889,-46.85222,221733
"Duque de Caxias",-22.78556,-43.31167,818329
"Dourados",-22.22111,-54.80556,162202
"Divinópolis",-20.14355,-44.89065,193832
"Diadema",-23.68611,-46.62278,390633
"Curitiba",-25.42778,-49.27306,1718421
"Cuiabá",-15.59611,-56.09667,521934
"Cubatão",-23.895,-46.42528,118410
"Criciúma",-28.6775,-49.36972,161954
"Cotia",-23.60389,-46.91917,174828
"Coronel Fabriciano",-19.51861,-42.62889,100916
"Contagem",-19.93167,-44.05361,627123
"Conselheiro Lafaiete",-20.66028,-43.78611,111596
"Colombo",-25.29167,-49.22417,217000
"Colatina",-19.53944,-40.63056,101190
"Chapecó",-27.09639,-52.61833,160157
"Caxias do Sul",-29.16806,-51.17944,381270
"Catanduva",-21.13778,-48.97278,109612
"Cascavel",-24.95583,-53.45528,257172
"Carapicuíba",-23.52272,-46.835,361112
"Canoas",-29.91778,-51.18361,328291
"Campos",-21.75227,-41.33044,387417
"Campo Grande",-20.44278,-54.64639,729151
"Campinas",-22.90556,-47.06083,1031554
"Camaçari",-12.6975,-38.32417,188758
"Cachoeiro de Itapemirim",-20.84889,-41.11278,187019
"Cachoeirinha",-29.95111,-51.09389,121084
"Cabo Frio",-22.88717,-42.02622,108239
"Brasília",-15.77972,-47.92972,2207718
"Bragança Paulista",-22.9527,-46.54418,125096
"Botucatu",-22.88583,-48.445,113862
"Blumenau",-26.91944,-49.06611,293949
"Birigui",-21.28861,-50.34,102277
"Betim",-19.96778,-44.19833,384000
"Belo Horizonte",-19.92083,-43.93778,2373224
"Belford Roxo",-22.76417,-43.39944,466096
"Bauru",-22.31472,-49.06056,335024
"Barueri",-23.51056,-46.87611,251994
"Barretos",-20.55722,-48.56778,101220
"Barreiras",-12.15278,-44.99,158292
"Barra Mansa",-22.54417,-44.17139,164052
"Barbacena",-21.22583,-43.77361,122211
"Atibaia",-23.11694,-46.55028,110968
"Assis",-22.66167,-50.41222,101597
"Araucária",-25.59306,-49.41028,111302
"Araruama",-22.87278,-42.34306,109637
"Araras",-22.35694,-47.38417,107463
"Araraquara",-21.79444,-48.17556,168468
"Araçatuba",-21.20889,-50.43278,170024
"Aracaju",-10.91111,-37.07167,490175
"Apucarana",-23.55083,-51.46083,107085
"Angra dos Reis",-23.00667,-44.31806,153635
"Anápolis",-16.32667,-48.95278,319587
"Americana",-22.73917,-47.33139,196022
"Alagoinhas",-12.13556,-38.41917,122688
"Guaíba",-30.11389,-51.325,101024
"Palmas",-10.16745,-48.32766,196272
"Rio Branco",-9.97472,-67.81,257642
"Porto Velho",-8.76194,-63.90389,306180
"Manaus",-3.10194,-60.025,1598210
"Boa Vista",2.81972,-60.67333,235150
"Ji Paraná",-10.88528,-61.95167,107697
"Aparecida de Goiânia",-16.82333,-49.24389,510770
"Jaboatão dos Guararapes",-8.11278,-35.01472,630008
"Lauro de Freitas",-12.89444,-38.32722,141280
"Pinhais",-25.44472,-49.1925,117000
"Simões Filho",-12.78444,-38.40389,116662
"Sinop",-11.86417,-55.5025,116013
"Nassau",25.05823,-77.34306,227940
"Gaborone",-24.65451,25.90859,208411
"Vitebsk",55.1904,30.2049,342700
"Salihorsk",52.7876,27.5415,101614
"Pinsk",52.1229,26.0951,130777
"Orsha",54.5081,30.4172,125347
"Novoye Medvezhino",53.88333,27.45,120000
"Navapolatsk",55.5318,28.5987,100885
"Minsk",53.9,27.56667,1742124
"Mazyr",52.0495,29.2456,112137
"Maladzyechna",54.3167,26.854,101300
"Mahilyow",53.9168,30.3449,369200
"Hrodna",53.6884,23.8258,317365
"Gomel",52.4345,30.9754,480951
"Brest",52.09755,23.68775,300715
"Baranovichi",53.1327,26.0139,168772
"Babruysk",53.1384,29.2214,220517
"Malinovka",53.8579,27.4374,105000
"Abbotsford",49.05798,-122.25257,151683
"Anmore",49.31637,-122.85263,126456
"Barrie",44.40011,-79.66634,182041
"Brampton",43.68341,-79.76633,433806
"Burlington",43.38621,-79.83713,164415
"Burnaby",49.26636,-122.95263,202799
"Calgary",51.05011,-114.08529,1019942
"Cambridge",43.3601,-80.31269,120372
"Coquitlam",49.28297,-122.75262,114565
"Dartmouth",44.67134,-63.57719,101343
"Delta",49.14399,-122.9068,101668
"Edmonton",53.55014,-113.46871,712391
"Etobicoke",43.65421,-79.56711,347948
"Gatineau",45.47723,-75.70164,242124
"Greater Sudbury",46.49,-80.99001,157857
"Guelph",43.54594,-80.25599,115760
"Hamilton",43.25011,-79.84963,519949
"Kelowna",49.88307,-119.48568,125109
"Kingston",44.22976,-76.48098,114195
"Kitchener",43.42537,-80.5112,233700
"Laval",45.56995,-73.692,376845
"London",42.98339,-81.23304,346765
"Longueuil",45.53121,-73.51806,229330
"Markham",43.86682,-79.2663,261573
"Mississauga",43.5789,-79.6583,668549
"Montréal",45.50884,-73.58781,1600000
"North York",43.76681,-79.4163,636000
"Oakville",43.45011,-79.68292,165697
"Oshawa",43.90012,-78.84957,247989
"Ottawa",45.41117,-75.69812,812129
"Regina",50.45008,-104.6178,176183
"Richmond",49.17003,-123.13683,182000
"Richmond Hill",43.87111,-79.43725,185541
"Saguenay",48.41675,-71.06573,143692
"Saskatoon",52.11679,-106.63452,198958
"Sherbrooke",45.40008,-71.89908,129447
"St. Catharines",43.17126,-79.24267,131989
"Surrey",49.10635,-122.82509,394976
"Toronto",43.70011,-79.4163,2600000
"Trois-Rivières",46.34515,-72.5477,119693
"Vancouver",49.24966,-123.11934,600000
"Vaughan",43.8361,-79.49827,238866
"Victoria",48.43294,-123.3693,289625
"Windsor",42.30008,-83.01654,278013
"Winnipeg",49.8844,-97.14704,632063
"Halifax",44.64533,-63.57239,359111
"Québec",46.81228,-71.21454,528595
"Lévis",46.80326,-71.17793,126396
"Sydney",46.1351,-60.1831,105968
"Scarborough",43.77223,-79.25666,600000
"Okanagan",50.36386,-119.34997,297601
"Ladner",49.08938,-123.08241,200000
"Uvira",-3.39534,29.13779,170391
"Tshikapa",-6.41621,20.79995,267462
"Mwene-Ditu",-7.00906,23.45278,189177
"Mbuji-Mayi",-6.13603,23.58979,874761
"Kisangani",0.51528,25.19099,539158
"Kindu",-2.94373,25.92237,135698
"Kananga",-5.89624,22.41659,463546
"Kalemie",-5.94749,29.19471,146974
"Isiro",2.77391,27.61603,127076
"Ilebo",-4.33111,20.58638,107093
"Goma",-1.67409,29.22845,144124
"Gandajika",-6.74504,23.95328,154425
"Butembo",0.14164,29.29117,154621
"Bukavu",-2.49077,28.84281,225389
"Lubumbashi",-11.66089,27.47938,1373770
"Likasi",-10.98303,26.7384,422414
"Kolwezi",-10.71484,25.46674,418000
"Mbandaka",0.04865,18.26034,184185
"Matadi",-5.79949,13.44068,180109
"Kinshasa",-4.32758,15.31357,7785965
"Kikwit",-5.04098,18.81619,186991
"Gemena",3.25651,19.77234,117639
"Bandundu",-3.31687,17.38063,118211
"Masina",-4.38361,15.39139,485167
"Bimbo",4.25671,18.41583,129655
"Bangui",4.36122,18.55496,542393
"Pointe-Noire",-4.77609,11.86352,659084
"Dolisie",-4.19834,12.66664,103894
"Brazzaville",-4.26613,15.28318,1284609
"Zürich",47.36667,8.55,341730
"Lausanne",46.516,6.63282,116751
"Genève",46.20222,6.14569,183981
"Bern",46.94809,7.44744,121631
"Basel",47.55839,7.57327,164488
"Yamoussoukro",6.82055,-5.27674,194530
"San-Pédro",4.74851,-6.6363,196751
"Man",7.41251,-7.55383,139341
"Korhogo",9.45803,-5.62961,167359
"Gagnoa",6.13193,-5.9506,123184
"Divo",5.83739,-5.35723,127867
"Daloa",6.87735,-6.45022,215652
"Bouaké",7.69385,-5.03031,567481
"Anyama",5.49462,-4.05183,100653
"Abobo",5.41613,-4.0159,900000
"Abidjan",5.30966,-4.01266,3677115
"Abengourou",6.72972,-3.49639,104020
"Viña del Mar",-33.02457,-71.55183,294551
"Valparaíso",-33.03932,-71.62725,282448
"Valdivia",-39.81422,-73.24589,133419
"Temuco",-38.73965,-72.59842,238129
"Talcahuano",-36.72494,-73.11684,252968
"Talca",-35.4264,-71.65542,197479
"Santiago",-33.45694,-70.64827,4837295
"San Bernardo",-33.59217,-70.6996,249858
"Rancagua",-34.17083,-70.74444,212695
"Quilpué",-33.04752,-71.44249,130263
"Punta Arenas",-53.15483,-70.91129,117430
"Puerto Montt",-41.46691,-72.94956,160054
"Puente Alto",-33.61169,-70.57577,510417
"Osorno",-40.57395,-73.13348,135773
"Los Ángeles",-37.46973,-72.35366,125430
"La Serena",-29.90453,-71.24894,154521
"Iquique",-20.22036,-70.13913,227499
"Curicó",-34.98279,-71.23943,102438
"Coquimbo",-29.95332,-71.33947,161317
"Copiapó",-27.36679,-70.3314,129280
"Concepción",-36.82699,-73.04977,215413
"Chillán",-36.60664,-72.10344,150396
"Calama",-22.45591,-68.93015,143084
"Arica",-18.4746,-70.29792,185999
"Antofagasta",-23.65236,-70.3954,309832
"La Pintana",-33.58331,-70.63419,201178
"Lo Prado",-33.4443,-70.72552,104316
"Yaoundé",3.86667,11.51667,1299369
"Nkongsamba",4.9547,9.9404,117063
"Ngaoundéré",7.32765,13.58472,231357
"Mokolo",10.74244,13.80227,275239
"Mbouda",5.62611,10.25421,111320
"Maroua",10.59095,14.31593,319941
"Loum",4.7182,9.7351,177429
"Kumba",4.6363,9.4469,144413
"Kousséri",12.07689,15.03063,435547
"Garoua",9.30143,13.39771,436899
"Edéa",3.8,10.13333,203149
"Douala",4.04827,9.70428,1338082
"Bertoua",4.57728,13.68459,218111
"Bamenda",5.9597,10.14597,393835
"Bafoussam",5.47775,10.41759,290768
"Lhasa",29.65,91.1,118721
"Kashgar",39.47066,75.98951,274717
"Jiayuguan",39.81121,98.28618,122396
"Hotan",37.1075,79.93548,114000
"Ürümqi",43.80096,87.60046,3029372
"Laochenglu",42.94769,89.17886,254900
"Shihezi",44.3023,86.03694,572772
"Sayibage",41.76055,86.15231,179465
"Hami",42.83393,93.50601,137072
"Changji",44.00782,87.30461,198776
"Aral",40.54184,81.26566,260000
"Altay",47.84864,88.13361,139341
"Yingbazha",41.18418,80.27921,340020
"Zunyi",27.68667,106.90722,466292
"Zoucheng",35.40056,116.96556,190537
"Zigong",29.34162,104.77689,689961
"Zhuzhou",27.83333,113.15,709358
"Zhumadian",32.97944,114.02944,720000
"Shangqiu",34.45,115.65,181218
"Zhuji",29.71877,120.24233,110721
"Mizhou",35.99472,119.3975,109968
"Zhoukou",33.63333,114.63333,377061
"Zhoucun",36.81667,117.81667,122402
"Yuxi",24.355,102.54222,103829
"Zhicheng",30.29556,111.50472,159383
"Zhenzhou",32.28034,119.16999,176006
"Zhenjiang",32.21086,119.45508,632552
"Zhengzhou",34.75778,113.64861,4253913
"Xinghua",32.93917,119.83417,105918
"Zhaotong",27.31667,103.71667,109400
"Zhaoqing",23.05116,112.45972,361969
"Luofeng",37.36497,120.40997,100774
"Zhanjiang",21.28145,110.34271,637790
"Zhangzhou",24.51333,117.65556,589831
"Zibo",36.79056,118.06333,3129228
"Anyang",36.096,114.38278,781129
"Zaozhuang",34.86472,117.55417,183665
"Zaoyang",32.12722,112.75417,184509
"Yuyao",30.05,121.14944,114177
"Kunshan",31.37762,120.95431,107986
"Yunfu",22.92833,112.03954,2612800
"Yuncheng",35.02306,110.99278,201950
"Yulin",22.63333,110.15,148485
"Yuci",37.68028,112.73194,235929
"Qianjiang",30.421,112.8919,179079
"Zhongxiang",31.16611,112.58306,108883
"Chengzhong",30.94454,113.55284,265886
"Yinchuan",38.46806,106.27306,475101
"Qingzhou",36.69667,118.47972,117056
"Yichun",27.83333,114.4,152169
"Yichang",30.71444,111.28472,476725
"Yibin",28.76667,104.62383,242111
"Yantai",37.47649,121.44081,719332
"Yangzhou",32.39722,119.43583,539715
"Yangshuo",24.78081,110.48967,300000
"Yangquan",37.8575,113.56333,413394
"Yancheng",33.3575,120.1573,628441
"Tongshan",34.18045,117.15707,1199193
"Shangrao",28.45322,117.9686,318769
"Jiangguanchi",34.12821,113.80681,449258
"Xuanzhou",30.9525,118.75528,127758
"Xiuying",20.00073,110.29359,290000
"Xiulin",29.71667,112.4,122411
"Xinzhou",38.40917,112.73333,154003
"Xinyang",32.12278,114.06556,1590668
"Nangandao",35.19033,113.80151,743601
"Xintai",35.90056,117.75194,222459
"Xinpu",34.59972,119.15944,392444
"Xinji",37.90278,115.20361,145911
"Xining",36.62554,101.75739,767531
"Xingtai",37.06306,114.49417,611739
"Ankang",32.68,109.01722,132654
"Xindi",29.81667,113.46667,175761
"Sanshui",23.15486,112.89161,153714
"Xichang",27.89642,102.26341,126787
"Xiazhen",34.80222,117.11167,125667
"Xiaogan",30.92689,113.92221,160437
"Xianyang",34.33778,108.70261,1034081
"Xiantao",30.3708,113.44294,239406
"Xianning",29.88333,114.21667,179494
"Zhuhai",22.27694,113.56778,501199
"Xiangtan",27.85,112.9,674189
"Xiangyang",32.0422,112.14479,462956
"Xi’an",34.25833,108.92861,6501190
"Xiamen",24.47979,118.08187,3531347
"Wuzhou",23.48333,111.31667,265846
"Wuxue",29.85058,115.5525,220661
"Wuxi",31.56887,120.28857,3543719
"Dongyang",29.26778,120.22528,130387
"Changde",29.04638,111.6783,517780
"Wuhu",31.33728,118.37351,507524
"Wuhan",30.58333,114.26667,9785388
"Wuhai",39.68442,106.81583,218427
"Wuda",39.49944,106.71167,129922
"Wenzhou",27.99942,120.66682,865672
"Tianfu",37.19723,122.05228,115370
"Weinan",34.50355,109.50891,172321
"Weihai",37.50914,122.11356,152595
"Weifang",36.71,119.10194,394732
"Wanxian",30.81544,108.37089,188980
"Wafangdian",39.61833,122.00806,250591
"Tongzhou",39.90395,116.66183,163326
"Wusong",30.95,117.78333,312588
"Tianshui",34.57952,105.74238,3500000
"Tianjin",39.14222,117.17667,11090314
"Tengzhou",35.07706,117.15176,105456
"Tangshan",39.63333,118.18333,3372102
"Tanggu",39.02111,117.64694,535298
"Taizhou",32.49069,119.90812,612356
"Taiyuan",37.86944,112.56028,3426519
"Taishan",22.25135,112.7799,145440
"Tai’an",36.18528,117.12,5499000
"Suzhou",33.63611,116.97889,205130
"Suizhou",31.71111,113.36306,323945
"Suining",30.50802,105.57332,124924
"Songjiang",31.03595,121.2146,130218
"Shizuishan",39.23333,106.76944,136570
"Shiyan",32.6475,110.77806,3460000
"Shiyan",32.56667,110.78333,408055
"Shiqiao",22.9464,113.35769,135308
"Shiqi",22.51682,113.38521,342306
"Shilong",23.11444,113.84722,109733
"Tongchuan",35.08056,109.08972,223603
"Shijiazhuang",38.04139,114.47861,2834942
"Shenzhen",22.54554,114.0683,10358381
"Shashi",30.30722,112.24472,498780
"Shaping",22.77019,112.95776,107589
"Shaoxing",30.00237,120.57864,421283
"Shaowu",27.34089,117.4831,112585
"Shaoguan",24.8,113.58333,628749
"Shanwei",22.78199,115.3475,165699
"Shantou",23.36814,116.71479,5329024
"Shanghai",31.22222,121.45806,22315474
"Shahecheng",36.93833,114.50583,125132
"Sanya",18.24306,109.505,144753
"Sanming",26.24861,117.61861,209444
"Jieyang",23.5418,116.36581,1001985
"Rizhao",35.4275,119.45528,246387
"Qujing",25.48333,103.78333,146015
"Quanzhou",24.91389,118.58583,184143
"Qinzhou",21.97296,108.62612,100996
"Qinhuangdao",39.93167,119.58833,759718
"Huai'an",33.58861,119.01917,555230
"Qingdao",36.06605,120.36939,3718835
"Qingyuan",23.7,113.03333,151287
"Puyang Chengguanzhen",35.70506,115.01409,666322
"Puyang",29.45679,119.88872,3590000
"Putian",25.43944,119.01028,376558
"Puqi",29.71667,113.88333,132891
"Pulandian",39.39528,121.96694,104277
"Pingxiang",27.61672,113.85353,372123
"Pingshan",22.99376,114.71311,113631
"Pingliang",35.53917,106.68611,108156
"Pingdingshan",33.73847,113.30119,889675
"Dadukou",26.5479,101.70539,461513
"Ningbo",29.87819,121.54945,3491597
"Neijiang",29.58354,105.06216,546854
"Nanyang",32.99472,112.53278,251532
"Nantong",32.03028,120.87472,666251
"Nanping",26.645,118.17361,171674
"Nanning",22.81667,108.31667,803788
"Nanjing",32.06167,118.77778,7165292
"Nanchong",30.79508,106.08473,7150000
"Nanchang",28.68396,115.85306,2357839
"Mingshui",36.71667,117.5,114858
"Mianyang",31.46784,104.68168,264136
"Mentougou",39.93819,116.09307,197772
"Meizhou",24.29769,116.10724,144212
"Wuchuan",21.45713,110.76591,104168
"Majie",25.0319,102.638,131696
"Macheng",31.18013,115.02213,126366
"Maba",24.68413,113.59839,113609
"Luqiao",28.58023,121.37491,427890
"Luoyang",34.68361,112.45361,1390581
"Luoyang",23.16244,114.27342,123144
"Luohe",33.56394,114.04272,417356
"Luancheng",37.87917,114.65167,597130
"Loudi",27.73444,111.99444,150684
"Guankou",28.15861,113.62709,1380000
"Puning",23.31072,116.16869,118023
"Linyi",35.06306,118.34278,270669
"Linxia Chengguanzhen",35.60028,103.20639,202402
"Linxi",39.71183,118.44954,100316
"Linshui",36.42472,114.20472,109955
"Qingnian",36.84032,115.71183,110046
"Linhai",28.84815,121.12807,152937
"Linfen",36.08889,111.51889,232566
"Licheng",23.29549,113.82465,172775
"Liaocheng",36.45596,115.97766,226930
"Lianran",24.92271,102.48496,106795
"Wuwei",37.92672,102.63202,493092
"Lianjiang",21.64673,110.28172,100341
"Leshan",29.56227,103.76386,154477
"Lengshuijiang",27.68806,111.42944,115399
"Leiyang",26.40238,112.85908,129116
"Lecheng",25.128,113.35041,124268
"Laohekou",32.38583,111.66778,253112
"Lanzhou",36.05701,103.83987,2628426
"Langfang",39.50972,116.69472,720119
"Laiyang",36.97583,120.71361,169594
"Laiwu",36.19278,117.65694,124108
"Kunming",25.03889,102.71833,3855346
"Kaiyuan",23.69767,103.30372,198423
"Kaifeng",34.7986,114.30742,900000
"Jiujiang",29.70475,116.00206,258807
"Qianzhou",28.31925,109.73346,102332
"Jinzhou",39.1,121.71667,215386
"Jining",35.405,116.58139,450327
"Jinhua",29.10678,119.64421,142206
"Jingzhou",30.35028,112.19028,177878
"Jingmen",31.03361,112.20472,167750
"Jingling",30.65,113.1,224871
"Jingdezhen",29.2947,117.20789,310565
"Jinchang",38.50062,102.19379,144363
"Jincheng",35.50222,112.83278,332650
"Jinan",36.66833,116.99722,4335989
"Jieshou",33.26338,115.36108,141993
"Jieshi",22.81027,115.83058,137444
"Jiazi",22.87932,116.07318,130298
"Jiaxing",30.7522,120.75,466101
"Jiaozuo",35.23972,113.23306,517540
"Jiaozhou",36.28389,120.00333,165026
"Jiangmen",22.58333,113.08333,532419
"Yangjiang",21.85563,111.96272,399735
"Ji’an",27.11716,114.97927,245000
"Guangyuan",32.44201,105.823,213365
"Huzhou",30.8703,120.0933,158320
"Humen",22.81899,113.67306,191891
"Huizhou",23.11147,114.41523,289201
"Huicheng",23.03845,116.28988,125919
"Xinhui",22.456,113.0482,195129
"Huangzhou",30.45,114.8,122563
"Huangyan",28.6501,121.26591,150448
"Huangshi",30.24706,115.04814,688090
"Dasha",23.11037,113.4418,116307
"Huanggang",23.67704,116.99961,225956
"Daxing",39.74025,116.32693,104904
"Huainan",32.62639,116.99694,1027655
"Huaihua",27.54944,109.95917,127322
"Huaibei",33.97444,116.79167,903039
"Heze",35.23929,115.47358,254602
"Yiyang",28.58917,112.32833,202608
"Hepo",23.43077,115.82991,131238
"Hengyang",26.88946,112.61888,759602
"Hengshui",37.73222,115.70111,456356
"Hefei",31.86389,117.28083,3310268
"Hebi",35.89917,114.1925,244662
"Hanzhong",33.07278,107.03028,145986
"Hangzhou",30.29365,120.16142,6241971
"Hangu",39.24889,117.78917,208369
"Handan",36.60056,114.46778,1358318
"Jiaojiang",28.68028,121.44278,470804
"Haimen",23.19346,116.61219,125427
"Haikou",24.77985,102.57548,112644
"Haikou",20.04583,110.34167,615835
"Guli",28.88162,120.03308,536000
"Guiyang",26.58333,106.71667,1171633
"Guilin",25.28194,110.28639,649352
"Guangzhou",23.11667,113.25,11071424
"Guangshui",31.6199,113.9978,154771
"Gejiu",23.36085,103.15372,136135
"Gaozhou",21.93924,110.84607,166069
"Gaoping",30.77576,106.10294,204368
"Gaomi",36.38333,119.75278,150793
"Fuzhou",26.06139,119.30611,1179720
"Fuyang",32.9,115.81667,170023
"Fuling",29.706,107.39575,166507
"Foshan",23.02677,113.13148,3600000
"Ezhou",30.4,114.83333,193652
"Encheng",22.18659,112.30424,110921
"Shengli",37.46271,118.49165,306450
"Dongtai",32.85231,120.30947,110988
"Donghai",22.94593,115.64204,188602
"Dongguan",23.01797,113.74866,8000000
"Dingzhou",38.51306,114.99556,152934
"Dezhou",37.45127,116.31046,379555
"Deyang",31.13019,104.38198,152194
"Lijiang",26.86879,100.22072,1137600
"Dazhou",31.21592,107.50092,130749
"Dawukou",39.04194,106.39583,131880
"Danshui",22.7984,114.46716,126701
"Daliang",22.84067,113.2503,210411
"Dalian",38.91222,121.60222,4087733
"Dali",25.58474,100.21229,134040
"Chuzhou",32.32194,118.29778,280582
"Yangchun",22.16667,111.78333,153547
"Chongqing",29.56278,106.55278,7457600
"Chizhou",30.66134,117.47783,148375
"Chenzhou",25.8,113.03333,179038
"Jiangyin",31.91102,120.26302,107918
"Chengdu",30.66667,104.06667,7415590
"Chenghua",23.46132,116.77007,152453
"Chaozhou",23.65396,116.62262,424787
"Chaohu",31.6,117.86667,138463
"Changzhou",31.77359,119.95401,949018
"Changzhi",35.20889,111.73861,699514
"Changsha",28.19874,112.97087,3093980
"Cangzhou",38.31667,116.86667,527681
"Buhe",30.28757,112.22979,106347
"Bozhou",33.87722,115.77028,174140
"Boshan",36.48333,117.83333,153596
"Binzhou",37.36667,118.01667,115893
"Bengbu",32.94083,117.36083,576648
"Beijing",39.9075,116.39723,11716620
"Beihai",21.48333,109.1,289568
"Beibei",29.82739,106.43645,112019
"Baoding",38.85111,115.49028,995652
"Baiyin",36.54696,104.17023,188533
"Shangyu",30.01556,120.87111,770000
"Anshun",26.25,105.93333,351936
"Anqiu",36.43417,119.1925,105665
"Anqing",30.51365,117.04723,358661
"Anbu",23.44895,116.68092,162964
"Jiangyou",31.76667,104.71667,127225
"Suzhou",31.30408,120.59538,5345961
"Zhongshan",21.31992,110.5723,3121275
"Lianghu",29.99152,120.89845,155000
"Yueyang",29.37455,113.09481,1200000
"Zhaodong",46.06771,125.98263,154406
"Zhangjiakou",40.81,114.87944,692602
"Zalantun",48,122.71667,132224
"Yushu",44.8,126.53333,124736
"Yingkou",40.66482,122.22833,591159
"Yichun",47.72143,128.87529,155762
"Yanji",42.9075,129.50778,326957
"Yakeshi",49.28333,120.73333,116284
"Zhangjiakou Shi Xuanhua Qu",40.61028,115.04472,373422
"Xilin Hot",43.96667,116.03333,120965
"Ulanhot",46.08333,122.08333,165846
"Tongliao",43.6125,122.26528,261110
"Tieling",42.29306,123.84139,333907
"Tieli",46.98043,128.04497,109636
"Guangming",45.33333,122.78333,112819
"Sujiatun",41.65917,123.33917,148113
"Suihua",46.63954,126.99508,252245
"Siping",43.16143,124.37785,555609
"Shunyi",40.12175,116.64783,117623
"Shuangyashan",46.63611,131.15389,600000
"Shuangcheng",45.35,126.28333,130710
"Shenyang",41.79222,123.43278,6255921
"Shanhaiguan",40.0025,119.74889,140000
"Fendou",46.64142,124.86283,226298
"Taihe",45.76195,130.85131,345033
"Qiqihar",47.34088,123.96045,882364
"Qianguo",45.11711,124.85676,113611
"Panshan",41.18806,122.04944,625040
"Nehe",48.48333,124.83333,108253
"Nanpiao",41.09822,120.74792,157044
"Lianhe",47.13333,129.27426,121367
"Mudanjiang",44.58333,129.6,665915
"Longjing",42.77139,129.42333,117185
"Longjiang",47.33072,123.17816,106384
"Longfeng",46.53168,125.1038,152074
"Liaoyuan",42.90361,125.13583,465249
"Liaoyang",41.27194,123.17306,687890
"Kaiyuan",42.53306,124.04028,112462
"Jixi",45.30109,130.95718,403759
"Jiutai",44.1525,125.83278,175115
"Jiupu",41.06667,122.95,123843
"Jishu",44.31667,126.8,103988
"Jinzhou",41.10778,121.14167,604269
"Lianshan",40.76432,120.85327,313247
"Jining",41.0275,113.10583,258757
"Jilin",43.85083,126.56028,1881977
"Minzhu",43.72145,127.33401,123018
"Jiamusi",46.79927,130.31633,549549
"Jalai Nur",49.45,117.7,107828
"Jagdaqi",50.41667,124.11667,135760
"Hulan Ergi",47.20417,123.63333,265344
"Hulan",45.98333,126.6,109104
"Huadian",42.96333,126.74778,139047
"Honggang",46.40124,124.88322,147977
"Hohhot",40.81056,111.65222,774477
"Fendou",45.21235,130.90254,164844
"Heihe",50.24413,127.49016,109427
"Hegang",47.35118,130.30012,743307
"Harbin",45.75,126.65,5878939
"Hailun",47.4565,126.95368,109881
"Hailar",49.2,119.7,211066
"Haicheng",40.85158,122.74754,191651
"Gongzhuling",43.50075,124.81979,140909
"Fuyu",45.18333,124.81667,138704
"Fuxin",42.01556,121.65889,689050
"Fushun",41.85583,123.92333,1400646
"Fengcheng",40.45361,124.07167,120514
"Dunhua",43.3725,128.2425,148844
"Dongling",41.81444,123.57583,171454
"Dongxing",45.36088,130.78679,109561
"Dehui",44.53333,125.7,108818
"Datong",40.09361,113.29139,1052678
"Daqing",46.58333,125,203488
"Dandong",40.12917,124.39472,631973
"Chifeng",42.26833,118.96361,346654
"Chengde",40.9725,117.93611,449325
"Chaoyang",41.57028,120.45861,410005
"Changchun",43.88,125.32278,4193073
"Benxi",41.28861,123.765,987717
"Beipiao",41.79194,120.77917,154999
"Bei’an",48.26667,126.6,436444
"Baotou",40.65222,109.82222,1301768
"Baoshan",46.55861,131.42444,123791
"Baicheng",45.60746,122.82076,316970
"Baishan",41.93853,126.41965,183880
"Anshan",41.12361,122.99,1199275
"Anda",46.40202,125.31454,181271
"Acheng",45.54545,126.97703,144665
"Changshu City",31.64615,120.74221,1047700
"Jiashan",30.84918,120.92583,137112
"Fenghuang",27.93557,109.59961,370000
"Zhu Cheng City",35.99502,119.40259,1000000
"Shangri-La",27.82511,99.70779,130000
"Ordos",39.6086,109.78157,1940653
"Wenshan City",23.36306,104.25047,450000
"Liupanshui",26.59444,104.83333,251900
"Villavicencio",4.142,-73.62664,321717
"Valledupar",10.46314,-73.25322,308237
"Tunja",5.53528,-73.36778,117479
"Tuluá",4.08466,-76.19536,165501
"Soledad",10.91843,-74.76459,342556
"Sogamoso",5.71434,-72.93391,126551
"Soacha",4.57937,-74.21682,313945
"Sincelejo",9.30472,-75.39778,261187
"Santa Marta",11.24079,-74.19904,431781
"Popayán",2.43823,-76.61316,258653
"Pereira",4.81333,-75.69611,440118
"Pasto",1.21361,-77.28111,382236
"Palmira",3.53944,-76.30361,247986
"Neiva",2.9273,-75.28189,352855
"Montería",8.74798,-75.88143,272420
"Medellín",6.25184,-75.56359,1999979
"Manizales",5.06889,-75.51738,357814
"Malambo",10.85953,-74.77386,101534
"Maicao",11.38321,-72.24321,130348
"Magangué",9.24202,-74.75467,100313
"Itagüí",6.18461,-75.59913,281853
"Ibagué",4.43889,-75.23222,421685
"Girón",7.0682,-73.16981,108466
"Girardot City",4.30079,-74.80754,130289
"Floridablanca",7.06222,-73.08644,252267
"Florencia",1.61438,-75.60623,130337
"Envigado",6.17591,-75.59174,163007
"Dos Quebradas",4.83916,-75.66727,179583
"Cúcuta",7.89391,-72.50782,721398
"Cartago",4.74639,-75.91167,134827
"Cartagena",10.39972,-75.51444,952024
"Cali",3.43722,-76.5225,2392877
"Buga",3.90089,-76.29783,118004
"Buenaventura",3.8801,-77.03116,240387
"Bucaramanga",7.12539,-73.1198,571820
"Bogotá",4.60971,-74.08175,7674366
"Bello",6.33732,-75.55795,392939
"Barranquilla",10.96854,-74.78132,1380425
"Barrancabermeja",7.06528,-73.85472,191403
"Armenia",4.53389,-75.68111,315328
"San José",9.93333,-84.08333,335007
"Santiago de Cuba",20.02083,-75.82667,555865
"Santa Clara",22.40694,-79.96472,250512
"San Miguel del Padrón",23.06639,-82.29472,159273
"Sancti Spíritus",21.92972,-79.4425,127069
"Pinar del Río",22.41667,-83.69667,186990
"Palma Soriano",20.2113,-75.99362,102826
"Matanzas",23.04111,-81.5775,146733
"Manzanillo",20.34173,-77.12126,128188
"Las Tunas",20.96167,-76.95111,203684
"Havana",23.13302,-82.38304,2163824
"Holguín",20.88722,-76.26306,319102
"Guantánamo",20.14444,-75.20917,272801
"Guanabacoa",23.1236,-82.30082,112964
"Cienfuegos",22.14957,-80.44662,186644
"Ciego de Ávila",21.84,-78.76194,142027
"Cerro",23.10861,-82.37778,132351
"Camagüey",21.38083,-77.91694,347562
"Bayamo",20.37417,-76.64361,192632
"Arroyo Naranjo",23.03677,-82.36937,210053
"Habana del Este",23.15917,-82.33056,178041
"Centro Habana",23.13833,-82.36417,158151
"Arroyo Naranjo",23.0144,-82.3031,210053
"Boyeros",23.0072,-82.4017,188593
"Diez de Octubre",23.0881,-82.3597,227293
"Praia",14.93152,-23.51254,113364
"Willemstad",12.1084,-68.93354,125000
"Nicosia",35.17531,33.3642,200452
"Limassol",34.68406,33.03794,154000
"Prague",50.08804,14.42076,1165581
"Pilsen",49.74747,13.37759,164180
"Ostrava",49.83465,18.28204,313088
"Olomouc",49.59552,17.25175,101268
"Brno",49.19522,16.60796,369559
"Würzburg",49.79391,9.95121,133731
"Wuppertal",51.27027,7.16755,360797
"Wolfsburg",52.42452,10.7815,123064
"Witten",51.44362,7.35258,101247
"Wiesbaden",50.08258,8.24932,272432
"Ulm",48.39841,9.99155,120451
"Trier",49.75565,6.63935,100129
"Stuttgart",48.78232,9.17702,589793
"Solingen",51.17343,7.0845,164359
"Siegen",50.87481,8.02431,107242
"Schöneberg",52.46667,13.35,115976
"Saarbrücken",49.2354,6.98165,181227
"Rostock",54.0887,12.14049,198293
"Reutlingen",48.49144,9.20427,112627
"Remscheid",51.17983,7.1925,117118
"Regensburg",49.01513,12.10161,129151
"Recklinghausen",51.61379,7.19738,122438
"Prenzlauer Berg",52.53878,13.42443,148878
"Potsdam",52.39886,13.06566,145292
"Pforzheim",48.88436,8.69892,119313
"Paderborn",51.71905,8.75439,142161
"Osnabrück",52.27264,8.0498,166462
"Oldenburg",53.14118,8.21467,159218
"Offenbach",50.10061,8.76647,119192
"Oberhausen",51.47311,6.88074,219176
"Nürnberg",49.45421,11.07752,499237
"Nippes",50.96545,6.95314,113487
"Neue Neustadt",52.15,11.63333,226851
"Neuss",51.19807,6.68504,152457
"Münster",51.96236,7.62571,270184
"Munich",48.13743,11.57549,1260391
"Mülheim (Ruhr)",51.43333,6.88333,171000
"Mönchengladbach",51.18539,6.44172,261742
"Moers",51.45342,6.6326,107816
"Marzahn",52.54525,13.56983,103768
"Mannheim",49.49671,8.47955,307960
"Mainz",49.98419,8.2791,184997
"Magdeburg",52.12773,11.62916,229826
"Ludwigshafen am Rhein",49.48121,8.44641,163196
"Lübeck",53.86893,10.68729,212207
"Leverkusen",51.0303,6.98432,162738
"Leipzig",51.33962,12.37129,504971
"Kreuzberg",52.49973,13.40338,147532
"Krefeld",51.33921,6.58615,237984
"Köln",50.93333,6.95,963395
"Koblenz",50.35357,7.57883,107319
"Kiel",54.32133,10.13489,232758
"Kassel",51.31667,9.5,194501
"Karlsruhe",49.00937,8.40444,283799
"Jena",50.92878,11.5899,104712
"Ingolstadt",48.76508,11.42372,120658
"Hildesheim",52.15077,9.95112,103052
"Herne",51.5388,7.22572,172108
"Heilbronn",49.13995,9.22054,120733
"Heidelberg",49.40768,8.69079,143345
"Harburg",53.46057,9.98388,202571
"Hannover",52.37052,9.73322,515140
"Hamm",51.68033,7.82089,185327
"Wandsbek",53.56667,10.1,411422
"Marienthal",53.56667,10.08333,287101
"Hamburg-Mitte",53.55,10.01667,233144
"Eimsbüttel",53.56667,9.98333,251907
"Altona",53.55,9.93333,250192
"Hamburg",53.57532,10.01534,1739117
"Halle (Saale)",51.5,12,234107
"Hagen",51.36081,7.47168,198972
"Göttingen",51.53443,9.93228,122149
"Gera",50.88029,12.08187,104659
"Gelsenkirchen",51.5075,7.12283,270028
"Fürth",49.47593,10.98856,112025
"Friedrichshain",52.51559,13.45482,117829
"Freiburg",47.9959,7.85222,215966
"Frankfurt am Main",50.11552,8.68417,650000
"Essen",51.45657,7.01228,593085
"Erlangen",49.59099,11.00783,102675
"Erfurt",50.9787,11.03283,203254
"Düsseldorf",51.22172,6.77616,573057
"Duisburg",51.43247,6.76516,504358
"Dresden",51.05089,13.73832,486854
"Dortmund",51.51494,7.466,588462
"Darmstadt",49.87167,8.65027,140385
"Chemnitz",50.8357,12.92922,247220
"Charlottenburg",52.51667,13.28333,119857
"Bremerhaven",53.55021,8.57673,117446
"Bremen",53.07516,8.80777,546501
"Braunschweig",52.26594,10.52673,244715
"Bottrop",51.52392,6.9285,119909
"Bonn",50.73438,7.09549,313125
"Bochum",51.48165,7.21648,385729
"Bielefeld",52.03333,8.53333,331906
"Berlin",52.52437,13.41053,3426354
"Bergisch Gladbach",50.9856,7.13298,106184
"Augsburg",48.37154,10.89851,259196
"Aachen",50.77664,6.08342,265208
"Bochum-Hordel",51.50168,7.1756,380000
"Halle Neustadt",51.47924,11.91605,240000
"Bergedorf",53.48462,10.22904,119665
"Berlin Schöneberg",52.48388,13.3477,116286
"Hamburg-Nord",53.58935,9.984,280000
"Djibouti",11.58901,43.14503,623891
"Odense",55.39594,10.38831,145931
"Copenhagen",55.67594,12.56553,1153615
"Århus",56.15674,10.21076,237551
"Aalborg",57.048,9.9187,122219
"Santo Domingo",18.50012,-69.98857,2201941
"Santiago de los Caballeros",19.4517,-70.69703,1200000
"San Pedro de Macorís",18.46156,-69.29718,217899
"San Francisco de Macorís",19.30099,-70.25259,124763
"Puerto Plata",19.79344,-70.6884,146000
"Salvaleón de Higüey",18.61501,-68.70798,123787
"Punta Cana",18.58182,-68.40431,100023
"La Romana",18.42733,-68.97285,208437
"Concepción de La Vega",19.22207,-70.52956,102426
"San Cristóbal",18.41667,-70.1,154040
"Bella Vista",18.45539,-69.9454,175683
"Santo Domingo Oeste",18.5,-70,701269
"Boumerdas",36.76639,3.47717,786499
"Tlemcen",34.87833,-1.315,132341
"Tizi Ouzou",36.71182,4.04591,144000
"Tiaret",35.37103,1.31699,178915
"Tébessa",35.40417,8.12417,634332
"Souk Ahras",36.28639,7.95111,156745
"Skikda",36.87617,6.90921,162702
"Sidi Bel Abbès",35.18994,-0.63085,191769
"Sétif",36.19112,5.41373,288461
"Saïda",34.83033,0.15171,127497
"Relizane",35.73734,0.55599,130094
"Oum el Bouaghi",35.87541,7.11353,100821
"Ouargla",31.94932,5.32502,129402
"Oran",35.69111,-0.64167,645984
"Mostaganem",35.93115,0.08918,130000
"Médéa",36.26417,2.75393,147707
"Mascara",35.39664,0.14027,150000
"Laghouat",33.8,2.86514,113872
"Khenchela",35.43583,7.14333,117000
"Jijel",36.82055,5.76671,148000
"Guelma",36.46214,7.42608,123590
"El Oued",33.35608,6.86319,134699
"El Eulma",36.15281,5.69016,128351
"Chlef",36.16525,1.33452,178616
"El Achir",36.06386,4.62744,158333
"Ech Chettia",36.19591,1.25537,167955
"Djelfa",34.67279,3.263,154265
"Constantine",36.365,6.61472,450097
"Bordj el Kiffan",36.74871,3.19249,123246
"Bordj Bou Arreridj",36.07321,4.76108,168346
"Blida",36.47004,2.8277,182447
"Biskra",34.85038,5.72805,307987
"Bejaïa",36.75587,5.08433,164103
"Béchar",31.61667,-2.21667,143382
"Batna",35.55597,6.17414,280798
"Baraki",36.66655,3.09606,105402
"Bab Ezzouar",36.72615,3.18291,275630
"Annaba",36.9,7.76667,206570
"Algiers",36.7525,3.04197,1977663
"Aïn Oussera",35.45139,2.90583,118687
"Aïn Beïda",35.79639,7.39278,105765
"Santo Domingo de los Colorados",-0.25305,-79.17536,200421
"Riobamba",-1.67098,-78.64712,124478
"Quito",-0.22985,-78.52495,1399814
"Quevedo",-1.02863,-79.46352,119436
"Portoviejo",-1.05458,-80.45445,170326
"Manta",-0.96212,-80.71271,183166
"Machala",-3.25861,-79.96053,198123
"Loja",-3.99313,-79.20422,117796
"Ibarra",0.35171,-78.12233,132977
"Guayaquil",-2.20584,-79.90795,1952029
"Esmeraldas",0.9592,-79.65397,165216
"Eloy Alfaro",-2.17579,-79.85519,167784
"Cuenca",-2.90055,-79.00453,276964
"Ambato",-1.24908,-78.61675,154369
"Tutamandahostel",-0.19727,-78.4975,140000
"Tartu",58.38062,26.72509,101092
"Tallinn",59.43696,24.75353,394024
"Tanda",30.78847,31.00192,404901
"Ţalkhā",31.0539,31.37787,157737
"Sohag",26.55695,31.69478,209419
"Shibīn al Kawm",30.55258,31.00904,186345
"Qinā",26.16418,32.72671,235362
"Qalyūb",30.17922,31.2056,100495
"Mallawī",27.7314,30.84165,142504
"Kafr ash Shaykh",31.1143,30.94012,143970
"Kafr ad Dawwār",31.13379,30.12969,267370
"Jirjā",26.33826,31.89161,128250
"Idkū",31.3073,30.2981,105599
"Idfū",24.97916,32.87722,133000
"Ḩalwān",29.84144,31.30084,230000
"Disūq",31.13259,30.64784,102037
"Dikirnis",31.08898,31.59478,137542
"Damanhūr",31.03408,30.46823,227943
"Port Said",31.25654,32.28411,538378
"Bilqās",31.21452,31.35798,103596
"Bilbays",30.42039,31.56223,129211
"Banī Suwayf",29.07441,31.09785,189624
"Banhā",30.45906,31.17858,167029
"Zagazig",30.58768,31.502,285097
"Asyūţ",27.18096,31.18368,420585
"Aswan",24.09082,32.89942,241261
"Suez",29.97371,32.52627,488125
"Luxor",25.69893,32.6421,422407
"Cairo",30.06263,31.24967,7734614
"Al Minyā",28.10988,30.7503,227150
"Al Manşūrah",31.03637,31.38069,420195
"Al Maḩallah al Kubrá",30.97063,31.1669,431052
"Al Jīzah",30.00808,31.21093,2443203
"Ismailia",30.60427,32.27225,284813
"Alexandria",31.21564,29.95527,3811516
"Al Ḩawāmidīyah",29.9,31.25,106841
"Al Fayyūm",29.30995,30.8418,306393
"Arish",31.13159,33.79844,128855
"Abū Kabīr",30.72508,31.67148,100684
"Laâyoune / El Aaiún",27.1418,-13.18797,196331
"Asmara",15.33805,38.93184,563930
"Valencia",39.46975,-0.37739,814208
"Torrevieja",37.97872,-0.68222,101792
"Telde",27.99243,-15.41915,100015
"Sevilla",37.38283,-5.97317,703206
"Santa Cruz de Tenerife",28.46824,-16.25462,222417
"La Laguna",28.4853,-16.32014,150661
"Palma",39.56939,2.65024,401270
"Murcia",37.98704,-1.13004,436870
"Marbella",36.51543,-4.88583,134623
"Málaga",36.72016,-4.42034,568305
"Las Palmas de Gran Canaria",28.09973,-15.41343,381847
"Jerez de la Frontera",36.68645,-6.13606,207532
"Jaén",37.76922,-3.79028,116557
"Huelva",37.26638,-6.94004,148806
"Granada",37.18817,-3.60667,234325
"Elche",38.26218,-0.70107,230112
"Dos Hermanas",37.28287,-5.92088,122943
"Córdoba",37.89155,-4.77275,328428
"Castelló de la Plana",39.98567,-0.04935,180005
"Cartagena",37.60512,-0.98623,211996
"Cadiz",36.52978,-6.29465,126766
"Badajoz",38.87789,-6.97061,148334
"Almería",36.83814,-2.45974,188810
"Alicante",38.34517,-0.48149,334757
"Algeciras",36.13326,-5.45051,116209
"Albacete",38.99424,-1.85643,169716
"Zaragoza",41.65606,-0.87734,674317
"Gasteiz / Vitoria",42.84998,-2.67268,235661
"Villaverde",40.35,-3.7,126802
"Vigo",42.23282,-8.72264,297332
"Valladolid",41.65518,-4.72372,317864
"Torrejón de Ardoz",40.45535,-3.46973,118162
"Tetuán de las Victorias",40.46667,-3.71667,155000
"Terrassa",41.56667,2.01667,210941
"Tarragona",41.11667,1.25,140323
"Santander",43.46472,-3.80444,182700
"Santa Coloma de Gramenet",41.45152,2.2081,119717
"Donostia / San Sebastián",43.31283,-1.97499,185357
"Sant Andreu de Palomar",41.43541,2.18982,142598
"Salamanca",40.96882,-5.66388,155619
"Sabadell",41.54329,2.10942,206493
"Reus",41.15612,1.10687,107118
"Puente de Vallecas",40.39354,-3.662,244151
"Parla",40.23604,-3.76752,115611
"Pamplona",42.81687,-1.64323,198491
"Oviedo",43.36029,-5.84476,224005
"Ourense",42.33669,-7.86407,107742
"Móstoles",40.32234,-3.86496,206478
"Moratalaz",40.41667,-3.65,104923
"Mataró",41.54211,2.4445,121722
"Madrid",40.4165,-3.70256,3255944
"Logroño",42.46667,-2.45,152107
"Lleida",41.61674,0.62218,135919
"León",42.60003,-5.57032,134305
"Leganés",40.32718,-3.7635,186066
"A Coruña",43.37135,-8.396,246056
"L'Hospitalet de Llobregat",41.35967,2.10028,257038
"Hortaleza",40.47444,-3.6411,161661
"Gràcia",41.40237,2.15641,120087
"Gijón",43.53573,-5.66152,277554
"Getafe",40.30571,-3.73295,167164
"Fuenlabrada",40.28419,-3.79415,197836
"Ciudad Lineal",40.45455,-3.64808,228171
"Chamartín",40.46206,-3.6766,140000
"Burgos",42.35022,-3.67527,178966
"Bilbao",43.26271,-2.92528,354860
"Barcelona",41.38879,2.15899,1621537
"Badalona",41.45004,2.24741,219547
"Alcorcón",40.34582,-3.82487,167967
"Alcobendas",40.54746,-3.64197,107514
"Alcalá de Henares",40.48205,-3.35996,204574
"Nou Barris",41.44163,2.17727,164981
"Moncloa-Aravaca",40.43547,-3.7317,116531
"Eixample",41.38896,2.16179,262485
"Sarrià-Sant Gervasi",41.40104,2.1394,140000
"Horta-Guinardó",41.41849,2.1677,169920
"Sants-Montjuïc",41.37263,2.1546,177636
"Sant Martí",41.41814,2.19933,221029
"Ciutat Vella",41.38022,2.17319,111290
"Arganzuela",40.40021,-3.69618,148797
"San Blas",40.43893,-3.61537,157367
"Latina",40.38897,-3.74569,256644
"Usera",40.38866,-3.70035,141189
"Salamanca",40.42972,-3.67975,147707
"Chamberí",40.43404,-3.70379,145934
"Carabanchel",40.39094,-3.7242,253678
"City Center",40.41831,-3.70275,149718
"Retiro",40.41317,-3.68307,126058
"Delicias",41.64928,-0.90757,110520
"Fuencarral-El Pardo",40.4984,-3.7314,220085
"Nazrēt",8.55,39.26667,213995
"Mekele",13.49667,39.47528,215546
"Jīma",7.66667,36.83333,128306
"Gondar",12.6,37.46667,153914
"Dire Dawa",9.59306,41.86611,252279
"Desē",11.13333,39.63333,136056
"Bishoftu",8.75225,38.97846,104215
"Bahir Dar",11.59364,37.39077,168899
"Hawassa",7.06205,38.47635,133097
"Addis Ababa",9.02497,38.74689,2757729
"Vantaa",60.29414,25.04099,190058
"Turku",60.45148,22.26869,175945
"Tampere",61.49911,23.78712,202687
"Oulu",65.01236,25.46816,128618
"Helsinki",60.16952,24.93545,558457
"Espoo",60.2052,24.6522,256760
"Villeurbanne",45.76667,4.88333,131445
"Tours",47.38333,0.68333,141621
"Toulouse",43.60426,1.44367,433055
"Toulon",43.11667,5.93333,168701
"Strasbourg",48.58392,7.74553,274845
"Saint-Étienne",45.43389,4.39,176280
"Rouen",49.44313,1.09932,112787
"Rennes",48.11198,-1.67429,209375
"Reims",49.25,4.03333,196565
"Perpignan",42.69764,2.89541,110706
"Paris",48.85341,2.3488,2138551
"Orléans",47.90289,1.90389,124149
"Nîmes",43.83333,4.35,148236
"Nice",43.70313,7.26608,338620
"Nantes",47.21725,-1.55336,277269
"Nancy",48.68439,6.18496,105334
"Mulhouse",47.75,7.33333,111430
"Montpellier",43.61092,3.87723,248252
"Metz",49.11911,6.17269,123914
"Marseille",43.29695,5.38107,794811
"Lyon",45.74846,4.84671,472317
"Limoges",45.83153,1.25781,141176
"Lille",50.63297,3.05858,228328
"Le Mans",48,0.2,144515
"Le Havre",49.4938,0.10767,185972
"Grenoble",45.16667,5.71667,158552
"Dijon",47.31667,5.01667,149782
"Clermont-Ferrand",45.77966,3.08628,138681
"Caen",49.18585,-0.35912,110624
"Brest",48.4,-4.48333,144899
"Boulogne-Billancourt",48.83333,2.25,108782
"Bordeaux",44.84044,-0.5805,231844
"Besançon",47.24878,6.01815,128426
"Argenteuil",48.95,2.25,101475
"Angers",47.46667,-0.55,168279
"Amiens",49.9,2.3,143086
"Aix-en-Provence",43.5283,5.44973,146821
"Saint-Quentin-en-Yvelines",48.77186,2.01891,146598
"Cergy-Pontoise",49.03894,2.07805,183430
"Port-Gentil",-0.71933,8.78151,109163
"Libreville",0.39241,9.45356,578156
"York",53.95763,-1.08271,144202
"Worcester",52.18935,-2.22001,100023
"Wolverhampton",52.58547,-2.12296,252791
"Woking",51.31903,-0.55893,103932
"West Bromwich",52.51868,-1.9945,135618
"Watford",51.65531,-0.39602,125707
"Walsall",52.58528,-1.98396,172141
"Swindon",51.55797,-1.78116,155432
"Swansea",51.62079,-3.94323,170883
"Sutton Coldfield",52.56667,-1.81667,107030
"Sutton",51.35,-0.2,187600
"Sunderland",54.90465,-1.38222,177965
"Stoke-on-Trent",53.00415,-2.18538,260419
"Stockport",53.40979,-2.15761,139052
"Southend-on-Sea",51.53782,0.71433,163377
"Southampton",50.90395,-1.40428,246201
"Slough",51.50949,-0.59541,134072
"Sheffield",53.38297,-1.4659,447047
"St Helens",53.45,-2.73333,102555
"Rotherham",53.43012,-1.35678,117618
"Reading",51.45625,-0.97113,244070
"Preston",53.76282,-2.70452,190687
"Portsmouth",50.79899,-1.09125,194150
"Poole",50.71429,-1.98458,150092
"Plymouth",50.37153,-4.14305,247297
"Peterborough",52.57364,-0.24777,140141
"Oxford",51.75222,-1.25596,154566
"Oldham",53.54051,-2.1183,104782
"Nottingham",52.9536,-1.15047,246654
"Norwich",52.62783,1.29834,177636
"Northampton",52.25,-0.88333,197322
"Newport",51.58774,-2.99835,117326
"Newcastle upon Tyne",54.97328,-1.61396,192382
"Milton Keynes",52.04172,-0.75583,184506
"Middlesbrough",54.57623,-1.23483,142707
"Manchester",53.48095,-2.23743,395515
"Luton",51.87967,-0.41748,193669
"City of London",51.51279,-0.09184,7556900
"London",51.50853,-0.12574,7556900
"Liverpool",53.41058,-2.97794,468945
"Leicester",52.6386,-1.13169,339239
"Leeds",53.79648,-1.54785,455123
"Hull",53.7446,-0.33525,302296
"Islington",51.53622,-0.10304,319143
"Ipswich",52.05917,1.15545,143767
"Huddersfield",53.64904,-1.78416,149017
"Gloucester",51.86568,-2.2431,128721
"Glasgow",55.86515,-4.25763,610268
"Gillingham",51.38914,0.54863,101187
"Exeter",50.7236,-3.52751,113118
"Enfield Town",51.65147,-0.08497,103970
"Edinburgh",55.95206,-3.19648,435791
"Eastbourne",50.76871,0.28453,112906
"Dundee",56.46913,-2.97489,151592
"Dudley",52.5,-2.08333,199059
"Derby",52.92277,-1.47663,235029
"Dagenham",51.55,0.16667,108368
"Crawley",51.11303,-0.18312,107061
"Coventry",52.40656,-1.51217,308313
"Colchester",51.88921,0.90421,109414
"Cheltenham",51.90006,-2.07972,103249
"Chelmsford",51.73575,0.46958,102671
"Cardiff",51.48,-3.18,302139
"Cambridge",52.2,0.11667,128488
"Bristol",51.45523,-2.59665,430713
"Brighton",50.82838,-0.13947,139001
"Bradford",53.79391,-1.75206,299310
"Bournemouth",50.72048,-1.8795,163600
"Bolton",53.58333,-2.43333,141331
"Blackpool",53.81667,-3.05,143101
"Blackburn",53.75,-2.48333,106154
"Birmingham",52.48142,-1.89983,984333
"Bexley",51.44162,0.14866,228000
"Belfast",54.59682,-5.92541,274770
"Basildon",51.56844,0.45782,101362
"Aberdeen",57.14369,-2.09814,183790
"Telford",52.67659,-2.44926,138241
"Mendip",51.2372,-2.6266,110000
"Tbilisi",41.69411,44.83368,1049498
"Kutaisi",42.26791,42.69459,178338
"Batumi",41.64228,41.63392,121806
"Teshi Old Town",5.58365,-0.10722,144013
"Tema",5.6698,-0.01657,155782
"Tamale",9.40079,-0.8393,360579
"Takoradi",4.88447,-1.75536,232919
"Sekondi-Takoradi",4.934,-1.7137,138872
"Obuasi",6.20602,-1.66191,137856
"Medina Estates",5.6658,-0.16307,101207
"Kumasi",6.68848,-1.62443,1468609
"Cape Coast",5.10535,-1.2466,143015
"Achiaman",5.7,-0.33333,202932
"Accra",5.55602,-0.1969,1963264
"Nzérékoré",7.75624,-8.8179,132728
"Kindia",10.05692,-12.86576,117062
"Kankan",10.38542,-9.30568,114009
"Conakry",9.53795,-13.67729,1767200
"Camayenne",9.535,-13.68778,1871242
"Malabo",3.75,8.78333,155963
"Bata",1.86391,9.76582,173046
"Piraeus",37.94745,23.63708,163688
"Peristéri",38.01539,23.69187,139981
"Pátra",38.24444,21.73444,168034
"Lárisa",39.63689,22.41761,144651
"Kallithéa",37.95,23.7,100641
"Irákleion",35.32787,25.14341,137154
"Athens",37.97945,23.71622,664046
"Thessaloníki",40.64361,22.93086,354290
"Villa Nueva",14.52694,-90.5875,406830
"Villa Canales",14.48139,-90.53167,122194
"San Juan Sacatepéquez",14.71889,-90.64417,136886
"Quetzaltenango",14.83472,-91.51806,132230
"Petapa",14.50278,-90.55167,141455
"Mixco",14.63333,-90.60639,473080
"Escuintla",14.305,-90.785,103165
"Guatemala City",14.64072,-90.51327,994938
"Bissau",11.86357,-15.59767,388028
"Georgetown",6.80448,-58.15527,235017
"Tsuen Wan",22.37066,114.10479,288728
"Yuen Long Kau Hui",22.45,114.03333,141900
"Kowloon",22.31667,114.18333,2019533
"Hong Kong",22.28552,114.15769,7012738
"Tegucigalpa",14.0818,-87.20681,850848
"San Pedro Sula",15.50417,-88.025,489466
"La Ceiba",15.75971,-86.78221,130218
"El Progreso",15.4,-87.8,100810
"Choloma",15.61444,-87.95302,139100
"Zagreb",45.81444,15.97798,698966
"Split",43.50891,16.43915,176314
"Rijeka",45.34306,14.40917,141172
"Zagreb - Centar",45.81313,15.97753,800000
"Port-de-Paix",19.9389,-72.83257,250000
"Port-au-Prince",18.53917,-72.335,1234742
"Tigwav",18.42939,-72.86297,117504
"Pétionville",18.5125,-72.28528,283052
"Léogâne",18.50959,-72.63147,134190
"Jacmel",18.23427,-72.53539,137966
"Delmas 73",18.54472,-72.30278,382920
"Croix des Bouquets",18.57512,-72.22302,229127
"Les Cayes",18.19331,-73.74601,125799
"Carrefour",18.54114,-72.39922,442156
"Okap",19.75938,-72.19815,134815
"Szeged",46.253,20.14824,164883
"Nyíregyháza",47.95539,21.71671,116298
"Miskolc",48.1,20.78333,172637
"Debrecen",47.53333,21.63333,204124
"Székesfehérvár",47.18995,18.41034,101600
"Pécs",46.08333,18.23333,156649
"Kecskemét",46.90618,19.69128,109847
"Győr",47.68333,17.63512,128265
"Budapest",47.49801,19.03991,1741041
"Budapest XI. kerület",47.47603,19.03605,139049
"Budapest XIV. kerület",47.5183,19.10789,120148
"Budapest XIII. kerület",47.52978,19.08068,113531
"Budapest III. kerület",47.54157,19.04501,123723
"Tebingtinggi",3.3285,99.1625,117530
"Tanjungbalai",2.96667,99.8,142506
"Sunggal",3.5765,98.6151,157914
"Rantauprapat",2.1,99.83333,103009
"Percut",3.6253,98.864,311063
"Perbaungan",3.5679,98.956,157174
"Pematangsiantar",2.9595,99.0687,209614
"Padangsidempuan",1.37952,99.27146,100561
"Medan",3.58333,98.66667,1750971
"Kisaran",2.9845,99.6158,129911
"Binjai",3.6001,98.4854,228763
"Belawan",3.7755,98.6832,102707
"Banda Aceh",5.5577,95.3222,250757
"Yogyakarta",-7.78278,110.36083,636660
"Weru",-6.711,108.5037,139004
"Ungaran",-7.13972,110.405,127812
"Makassar",-5.14,119.4221,1321717
"Ternate",0.79065,127.38424,101731
"Tegal",-6.8694,109.1402,237084
"Tasikmalaya",-7.3274,108.2207,271143
"Tanjungpinang",0.91667,104.45,192493
"Bandar Lampung",-5.42544,105.25803,800348
"Tangerang",-6.17806,106.63,1372124
"Surakarta",-7.55611,110.83167,555308
"Surabaya",-7.24917,112.75083,2374658
"Sumedang Utara",-6.85,107.91667,206746
"Sukabumi",-6.91806,106.92667,276414
"Sorong",-0.87956,131.26104,125535
"Soreang",-7.03306,107.51833,150932
"Situbondo",-7.70623,114.00976,600000
"Singkawang",0.90925,108.98463,101838
"Singaraja",-8.112,115.08818,133784
"Sidoarjo",-7.4478,112.7183,139189
"Serang",-6.1149,106.1502,164767
"Sepatan",-6.11889,106.575,118439
"Semarang",-6.9932,110.4203,1288084
"Sawangan",-6.40278,106.77444,114069
"Samarinda",-0.48585,117.1466,355160
"Salatiga",-7.33194,110.49278,172645
"Rengasdengklok",-6.15917,107.29806,201463
"Rangkasbitung",-6.3591,106.2494,126910
"Purwokerto",-7.42139,109.23444,217222
"Purwodadi",-7.0868,110.9158,150206
"Purwakarta",-6.55694,107.44333,215803
"Probolinggo",-7.7543,113.2159,181656
"Pontianak",-0.03109,109.32199,455173
"Plumbon",-6.705,108.47278,167105
"Prabumulih",-3.43447,104.23056,103470
"Pemalang",-6.9,109.36667,184149
"Pekanbaru",0.53333,101.45,703956
"Pekalongan",-6.8886,109.6753,257945
"Payakumbuh",-0.2159,100.6334,121572
"Pati",-6.7559,111.038,122785
"Pasuruan",-7.6453,112.9075,158600
"Paseh",-7.1026,107.7641,126181
"Pasarkemis",-6.17028,106.53028,154234
"Parung",-6.42139,106.73306,193898
"Parepare",-4.0135,119.6255,140000
"Pangkalpinang",-2.12914,106.11377,125933
"Pamulang",-6.34278,106.73833,174557
"Pamanukan",-6.28417,107.81056,114290
"Palu",-0.8917,119.8707,282431
"Palopo",-2.9925,120.19694,129273
"Palembang",-2.91673,104.7458,1441500
"Palangkaraya",-2.2136,113.9108,148139
"Padang",-0.94924,100.35427,840352
"Mojokerto",-7.4664,112.4338,112557
"Metro",-5.11306,105.30667,149526
"Mataram",-8.58333,116.11667,318674
"Martapura",-3.4109,114.8642,131449
"Manado",1.48218,124.84892,451893
"Malang",-7.9797,112.6304,746716
"Magelang",-7.47056,110.21778,111461
"Madiun",-7.6298,111.5239,186099
"Lumajang",-8.1335,113.2248,123626
"Lubuklinggau",-3.2945,102.8614,148243
"Loa Janan",-0.58295,117.09503,212816
"Lembang",-6.81167,107.6175,183130
"Lawang",-7.8353,112.6947,159380
"Labuan Bajo",-8.4964,119.8877,188724
"Kresek",-6.13139,106.37972,110182
"Klaten",-7.70583,110.60639,126831
"Kendari",-3.9778,122.51507,195006
"Kedungwuni",-6.97038,109.64794,117249
"Kediri",-7.81667,112.01667,235143
"Jombang",-7.54595,112.23307,126465
"Jember",-8.17211,113.69953,298585
"Jambi City",-1.6,103.61667,420323
"Jakarta",-6.21462,106.84513,8540121
"Indramayu",-6.32639,108.32,123263
"Grogol",-7.60111,110.81861,100613
"Gorontalo",0.5412,123.0595,144195
"Dumai",1.66711,101.44316,143760
"Depok",-7.7625,110.43167,104527
"Depok",-6.4,106.81861,1198129
"Denpasar",-8.65,115.21667,405923
"Curug",-6.26583,106.55639,191406
"Citeureup",-6.48556,106.88194,110155
"Cirebon",-6.7063,108.557,254298
"Ciputat",-6.2375,106.69556,207858
"Cimahi",-6.87222,107.5425,493698
"Cileunyi",-6.93889,107.75278,111476
"Cileungsir",-6.39472,106.95917,202190
"Cikarang",-6.26111,107.15278,106479
"Cikampek",-6.41972,107.45583,145620
"Cibinong",-6.48167,106.85417,188663
"Ciamis",-7.3257,108.3534,123637
"Ciampea",-6.55472,106.70083,207212
"Bontang",0.1324,117.4854,101691
"Bogor",-6.59444,106.78917,800000
"Blitar",-8.0983,112.1681,132416
"Bitung",1.45697,125.1895,137364
"Bengkulu",-3.80044,102.26554,309712
"Bekasi",-6.2349,106.9896,1520119
"Baturaja",-4.12891,104.16695,134759
"Batang",-6.4846,110.7083,115537
"Banyuwangi",-8.2325,114.35755,108166
"Banjarmasin",-3.31987,114.59075,572837
"Banjaran",-7.04528,107.58778,164952
"Bangil",-7.59939,112.8186,120000
"Bandung",-6.90389,107.61861,1699719
"Balikpapan",-1.26753,116.82887,433866
"Astanajapura",-6.8017,108.6311,148047
"Arjawinangun",-6.64528,108.41028,105845
"Ambon",-3.69543,128.18141,355596
"Adiwerna",-6.9375,109.1325,134188
"Padalarang",-6.83778,107.47278,124946
"Cikupa",-6.23639,106.50833,174041
"Teluknaga",-6.09889,106.63806,128275
"Kupang",-10.1718,123.6075,282396
"Jayapura",-2.53371,140.71813,134895
"City of Balikpapan",-1.24204,116.89419,700000
"South Tangerang",-6.28862,106.71789,1303569
"Dún Laoghaire",53.29395,-6.13586,185400
"Dublin",53.33306,-6.24889,1024027
"Cork",51.89797,-8.47061,190384
"Jerusalem",31.76904,35.21633,801000
"Tel Aviv",32.08088,34.78057,250000
"Rishon LeẔiyyon",31.97102,34.78939,220492
"Ramat Gan",32.08227,34.81065,128095
"Petaẖ Tiqwa",32.08707,34.88747,200000
"Netanya",32.33291,34.85992,171676
"H̱olon",32.01034,34.77918,165787
"Haifa",32.81841,34.9885,267300
"Bené Beraq",32.08074,34.8338,154400
"Beersheba",31.25181,34.7913,186600
"Bat Yam",32.02379,34.75185,128979
"Ashqelon",31.66926,34.57149,105995
"Ashdod",31.79213,34.64966,224656
"West Jerusalem",31.78199,35.21961,400000
"Yelahanka",13.10073,77.59632,116447
"Yavatmāl",20.39324,78.13201,128175
"Yamunānagar",30.12796,77.28371,208931
"Wardha",20.73933,78.59784,113759
"Warangal",18,79.58333,557802
"Vizianagaram",18.11692,83.41148,179358
"Visakhapatnam",17.68009,83.20161,1063178
"Virār",19.45591,72.81136,150357
"Vijayawada",16.51363,80.62974,874587
"Vidisha",23.52604,77.81092,140045
"Verāval",20.9077,70.36786,163326
"Vellore",12.9184,79.13255,177081
"Vejalpur",22.69021,73.56299,121610
"Vāsco Da Gāma",15.39585,73.81568,100485
"Varanasi",25.31668,83.01041,1164404
"Vadodara",22.29941,73.20812,1409476
"Uppal Kalan",17.40577,78.55911,118259
"Unnāo",26.54706,80.48781,161671
"Ulhasnagar",19.21667,73.15,516584
"Ujjain",23.18239,75.77643,457346
"Udipi",13.33467,74.74617,129113
"Udgīr",18.39258,77.11756,101064
"Udaipur",24.57117,73.69183,422784
"Tumkūr",13.34136,77.1022,307359
"Thiruvananthapuram",8.4855,76.94924,784153
"Trichūr",10.51667,76.21667,325110
"Tonk",26.16638,75.78824,151331
"Titāgarh",22.74252,88.37326,127751
"Tiruvottiyūr",13.15823,80.30181,248059
"Tiruvannāmalai",12.22662,79.07461,138243
"Tiruppur",11.11541,77.35456,397521
"Tirupati",13.63551,79.41989,250821
"Tirunelveli",8.72518,77.68452,435844
"Tiruchirappalli",10.8155,78.69651,775484
"Thanjāvūr",10.78523,79.13909,219571
"Thānesar",29.97323,76.83214,138279
"Thāne",19.19704,72.96355,1261517
"Teni",10.01531,77.482,1034724
"Tādepallegūdem",16.81467,81.52717,108167
"Suriāpet",17.14054,79.62045,111729
"Surendranagar",22.72706,71.64856,179628
"Sūrat",21.19594,72.83023,2894504
"Sultānpur",26.25788,82.07269,110368
"Sūjāngarh",27.7,74.46667,183808
"Srinagar",34.08565,74.80555,975857
"Chicacole",18.2989,83.89751,118299
"Sonīpat",28.99478,77.01937,250521
"Siwān",26.22096,84.35609,119181
"Sītāpur",27.56192,80.68265,164435
"Sirsa",29.53489,75.02898,181639
"Shimla",31.10442,77.16662,173503
"Silchar",24.82733,92.79787,152393
"Sīkar",27.61206,75.13996,199932
"Shyamnagar",22.83333,88.36667,441956
"Shrīrāmpur",22.75278,88.34222,226317
"Solāpur",17.67152,75.91044,997281
"Shivpuri",25.42378,77.66223,164215
"Shimoga",13.93157,75.56791,319550
"Shillong",25.56892,91.88313,132842
"Shiliguri",26.71004,88.42851,515574
"Shāntipur",23.24723,88.43302,149983
"Shāhjānpur",27.88165,79.90918,320434
"Seoni",22.08503,79.55037,101379
"Secunderabad",17.50427,78.54263,204182
"Sawāi Mādhopur",26.02301,76.34408,108612
"Satna",24.57726,80.82719,257778
"Sātāra",17.68589,73.99333,112793
"Sāngli",16.85438,74.56417,601214
"Sambhal",28.58498,78.56959,196109
"Sambalpur",21.46527,83.97573,162887
"Salem",11.65117,78.15867,778396
"Saharsa",25.87498,86.59611,145764
"Sahāranpur",29.9679,77.54522,484873
"Saugor",23.83877,78.73874,247333
"Roorkee",29.86632,77.89118,103894
"Rohtak",28.89447,76.58917,317245
"Robertsonpet",12.95629,78.27543,135218
"Rishra",22.72394,88.34563,117014
"Rewāri",28.199,76.6183,112079
"Rewa",24.53256,81.29234,208461
"Ratlām",23.33033,75.04032,236843
"Rānīganj",23.6164,87.13061,131261
"Ranchi",23.34316,85.3094,846454
"Rāmpur",28.81014,79.02699,296418
"Rāmgundam",18.80084,79.45206,452261
"Rāj-Nāndgaon",21.09687,81.0289,150755
"Rājkot",22.29161,70.79322,1177362
"Rajapalaiyam",9.45296,77.55335,124168
"Rājahmundry",17.00517,81.77784,304804
"Raipur",21.23333,81.63333,679995
"Raigarh",21.89764,83.3966,121278
"Rāiganj",25.61281,88.12449,170252
"Rāichūr",16.20546,77.35567,225962
"Raebareli",26.2309,81.23315,186433
"Kollam",8.88113,76.58469,394163
"Puruliya",23.33062,86.36303,122533
"Purnia",25.77895,87.47422,198453
"Puri",19.79825,85.82494,170841
"Pune",18.51957,73.85535,2935744
"Punāsa",22.23507,76.39335,350000
"Pudukkottai",10.38128,78.82141,112118
"Proddatūr",14.7502,78.54813,177797
"Port Blair",11.66667,92.75,112050
"Porbandar",21.64219,69.60929,138872
"Ponnāni",10.76695,75.92523,105512
"Puducherry",11.93381,79.82979,227411
"Pimpri",18.62292,73.80696,1284606
"Pīlibhīt",28.63124,79.80436,131008
"Phagwāra",31.22452,75.77387,100146
"Patna",25.59408,85.13563,1599920
"Patiāla",30.33625,76.3922,329224
"Pathānkot",32.27484,75.65287,174306
"Pātan",23.8507,72.12963,117863
"Parbhani",19.26855,76.77081,289629
"Panvel",18.98878,73.11013,128046
"Pānīpat",29.38747,76.96825,292808
"Pānihāti",22.69089,88.37404,378705
"Palwal",28.14469,77.32546,121965
"Pallāvaram",12.96796,80.15025,157145
"Pāli",25.77276,73.32335,210103
"Palakkad",10.7744,76.65625,132728
"Pālanpur",24.17128,72.43827,123294
"Orai",25.99023,79.45334,158265
"Ongole",15.50357,80.04454,172872
"Nowrangapur",19.23114,82.54826,1220946
"Nizāmābād",18.67154,78.0988,305438
"New Delhi",28.63576,77.22445,317797
"Nellore",14.45363,79.98674,404158
"Navadwīp",23.4067,88.36861,111123
"Nashik",19.99727,73.79096,1289497
"Nāngloi Jāt",28.67957,77.06799,194363
"Nandyāl",15.48879,78.48648,165337
"Nandurbar",21.36671,74.24051,100703
"Nanded",19.16023,77.31497,550564
"Nalgonda",17.05439,79.26707,121826
"Naihāti",22.89396,88.41521,253221
"Nagpur",21.14631,79.08491,2228018
"Nāgercoil",8.17731,77.43437,213858
"Nagda",23.45834,75.41759,103501
"Nadiād",22.69385,72.86157,202067
"Mysore",12.29791,76.63925,868313
"Muzaffarpur",26.12259,85.39055,333200
"Muzaffarnagar",29.47091,77.70332,349706
"Murwāra",23.83776,80.39405,195856
"Monghyr",25.37459,86.47455,203163
"Mothīhāri",26.64862,84.91656,112144
"Morena",26.49892,77.99534,152004
"Morbi",22.81731,70.8377,118022
"Morādābād",28.83893,78.77684,721139
"Moga",30.81383,75.16878,130549
"Mirzāpur",25.1449,82.56534,220029
"Miriālgūda",16.8722,79.56247,101234
"Meerut",28.98002,77.70636,1223184
"Medinīpur",22.42114,87.32257,153349
"Mau",25.94167,83.56111,246050
"Mathura",27.5035,77.67215,330511
"Marmagao",15.40927,73.78869,102345
"Mangalore",12.91723,74.85603,417387
"Mandya",12.5223,76.89746,134845
"Māndu",22.36667,75.38333,300000
"Mandsaur",24.07184,75.06986,124988
"Māler Kotla",30.5309,75.87949,113840
"Mālegaon",20.54966,74.53462,435362
"Mahbūbnagar",16.74385,77.98597,136135
"Madurai",9.91735,78.11962,909908
"Chennai",13.08784,80.27847,4328063
"Madhyamgram",22.68944,88.44594,161126
"Madanapalle",13.5503,78.50288,108593
"Machilīpatnam",16.18747,81.13888,192827
"Ludhiāna",30.91204,75.85379,1545368
"Lucknow",26.83928,80.92313,2472011
"Loni",28.75143,77.29023,164810
"Latur",18.39721,76.56784,348967
"Lalitpur",24.69007,78.41915,126475
"Lakhīmpur",27.94822,80.77935,140223
"Kumbakonam",10.96209,79.39124,139264
"Kulti",23.73166,86.84372,305405
"Kūkatpalli",17.48486,78.41376,341709
"Krishnanagar",23.40576,88.49073,145926
"Kozhikode",11.24802,75.7804,439922
"Kota",25.18254,75.83907,763088
"Korba",22.3458,82.69633,419146
"Kolhāpur",16.69563,74.23167,516142
"Kolār",13.13671,78.12917,126441
"Kishangarh",26.5741,74.86685,131749
"Khurja",28.25382,77.85535,105909
"Khardah",22.71861,88.37806,128346
"Kharagpur",22.33971,87.32501,219665
"Khanna",30.70547,76.22196,117137
"Khandwa",21.82427,76.35086,182841
"Khammam",17.24767,80.14368,170503
"Katihar",25.53852,87.57044,192555
"Kashipur",29.21399,78.95693,103138
"Karol Bāgh",28.65136,77.19072,505241
"Karnāl",29.69197,76.98448,225049
"Karīmnagar",18.43915,79.12856,228745
"Kanpur",26.46523,80.34975,2823249
"Kānchipuram",12.83515,79.70006,155029
"Kāmārhāti",22.67111,88.37472,332965
"Kalyān",19.2437,73.13554,1262255
"Kākināda",16.96036,82.23809,292923
"Kaithal",29.80153,76.39959,140604
"Kānchrāpāra",22.95998,88.42849,136954
"Jūnāgadh",21.51966,70.45981,184447
"Jalandhar",31.32556,75.57917,785178
"Jodhpur",26.26841,73.00594,921476
"Jīnd",29.31577,76.31502,161260
"Jhunjhunūn",28.12559,75.39797,113193
"Jhānsi",25.45887,78.57994,412927
"Jetpur",21.75482,70.62347,118068
"Jaunpur",25.75356,82.68689,169572
"Jāmuria",23.70468,87.07872,160242
"Jamshedpur",22.80278,86.18545,616338
"Jāmnagar",22.47292,70.06673,492056
"Jammu",32.73569,74.86911,465567
"Jamālpur",25.31258,86.48888,100780
"Jalpāiguri",26.51667,88.73333,107832
"Jālna",19.84102,75.88636,262034
"Jalgaon",21.00292,75.56602,429298
"Jaipur",26.91962,75.78781,2711758
"Jagādhri",30.16719,77.30367,101300
"Jabalpur",23.16697,79.95006,1030168
"Itārsi",22.61477,77.76222,100574
"Ingrāj Bāzār",25.00447,88.14573,170039
"Indore",22.71792,75.8333,1837041
"Imphal",24.80805,93.9442,223523
"Ichalkaranji",16.69117,74.46054,274383
"Hyderabad",17.38405,78.45636,3597816
"Hugli",22.90877,88.39674,177005
"Hubli",15.34776,75.13378,840214
"Hosūr",12.73647,77.83264,103724
"Hospet",15.26954,76.3871,197846
"Hoshangābād",22.74747,77.72736,109358
"Hisar",29.15394,75.72294,296436
"Hindupur",13.82807,77.49143,133298
"Hazārībāg",23.99507,85.36109,140063
"Hāthras",27.59551,78.05201,126882
"Hassan",13.00715,76.0962,128531
"Haridwar",29.94791,78.16025,186079
"Hardoī",27.39491,80.13165,122635
"Hāpur",28.72985,77.78068,242920
"Hāora",22.57688,88.31857,1027672
"Hanumāngarh",29.58182,74.32938,155687
"Hālīsahar",22.93218,88.41859,128172
"Haldwani",29.22254,79.5286,139497
"Hājīpur",25.68544,85.20981,133606
"Hābra",22.84202,88.65606,139297
"Gwalior",26.22983,78.17337,882458
"Gurgaon",28.4601,77.02635,197340
"Guntūr",16.29974,80.45729,530577
"Guntakal Junction",15.17112,77.36244,120964
"Guna",24.64691,77.3113,153689
"Gulbarga",17.33583,76.83757,483615
"Gudivāda",16.43547,80.99555,116161
"Gosāba",22.16547,88.8007,222764
"Gorakhpur",29.44768,75.67206,1324570
"Gorakhpur",26.76628,83.36889,674246
"Gondiā",21.46026,80.19205,124897
"Gondal",21.96074,70.80255,101801
"Gondā City",27.13181,81.95332,133583
"Godhra",22.77547,73.61488,131913
"Ghazīpur",25.58333,83.58526,103095
"Ghāziābād",28.66535,77.43915,1199191
"Gaya",24.79686,85.00385,423692
"Guwahati",26.1844,91.7458,899094
"Gangāwati",15.4313,76.52933,106250
"Gangāpur",26.47249,76.71744,120115
"Gangānagar",29.92009,73.87496,231838
"Ghandinagar",23.21667,72.68333,195985
"Gāndhīdhām",23.08333,70.13333,166388
"Gadag",15.42977,75.62971,162569
"Ferozepore",30.92574,74.61311,102130
"Fīrozābād",27.15092,78.39781,306409
"Fatehpur",25.92774,80.81266,166480
"Farrukhābād",27.39134,79.5793,241152
"Farīdābād",28.41124,77.31316,1220229
"Fyzābād",26.77549,82.15018,153047
"Etāwah",26.77615,79.02133,257448
"Erode",11.3428,77.72741,147270
"Ellore",16.71311,81.10437,183387
"Durgapur",23.51583,87.30801,518872
"Durg",21.19147,81.27619,255283
"Dam Dam",22.63341,88.42286,122719
"Dombivli",19.21667,73.08333,1193000
"Dindigul",10.36896,77.98036,200797
"Dimāpur",25.91174,93.7217,135860
"Dibrugarh",27.47989,94.90837,122155
"Dhūlia",20.9013,74.77737,366980
"Dhaulpur",26.69286,77.87968,102462
"Dharmavaram",14.41435,77.72035,114050
"Dhanbād",23.80199,86.44324,219636
"Dewas",22.96585,76.05526,261218
"Deoria",26.50167,83.77936,129570
"Delhi",28.65195,77.23149,10927986
"Dehri",24.90247,84.18217,129938
"Dehra Dūn",30.32443,78.03392,522081
"Dārjiling",27.03333,88.26667,123797
"Darbhanga",26.15216,85.89707,287150
"Dinapore",25.63705,85.04794,152940
"Damoh",23.83312,79.4419,118776
"Cuttack",20.46497,85.87927,580000
"Cuddapah",14.4775,78.82353,127010
"Cuddalore",11.74629,79.76436,158569
"Coimbatore",11.00555,76.96612,959823
"Cochin",9.93988,76.26022,604696
"Chūru",28.30415,74.96718,103533
"Chittaurgarh",24.88963,74.62403,106710
"Chitradurga",14.22262,76.40038,138587
"Chikmagalūr",13.32231,75.774,121484
"Chhindwāra",22.05697,78.93958,134847
"Chhatarpur",24.9177,79.58871,111594
"Chāpra",25.78031,84.74709,201597
"Chās",23.63556,86.16712,112141
"Chānda",19.95076,79.29523,328351
"Chandigarh",30.73629,76.7884,960787
"Chanduasi",28.45178,78.78277,112635
"Chandannagar",22.86225,88.36796,180623
"Kolkata",22.56263,88.36304,4631392
"Burhānpur",21.30868,76.23026,202695
"Bulandshahr",28.40392,77.85773,198612
"Budaun",28.03811,79.12668,161555
"Brahmapur",19.31151,84.7929,324726
"Botād",22.16917,71.66671,117053
"Borivli",19.23496,72.85976,609617
"Mumbai",19.07283,72.88261,12691836
"Bokāro",23.78732,85.95622,418533
"Bilimora",20.76957,72.96134,510879
"Bilāspur",22.08005,82.15543,282705
"Bīkaner",28.01762,73.31495,576015
"Bijapur",16.82442,75.71537,271064
"Bihār",25.20084,85.52389,244230
"Bīdar",17.91331,77.53011,204071
"Bhusāval",21.04365,75.78506,183001
"Bhuj",23.25397,69.66928,133459
"Bhubaneshwar",20.27241,85.83385,762243
"Bhopal",23.25469,77.40289,1599914
"Bhiwāni",28.79304,76.13968,190855
"Bhiwandi",19.30023,73.05881,707035
"Bhind",26.56671,78.78728,174035
"Bhīmavaram",16.54078,81.52322,142967
"Bhīlwāra",25.34707,74.64081,326431
"Bhilai",21.20919,81.4285,625138
"Bhayandar",19.30157,72.85107,520301
"Bhāvnagar",21.77445,72.1525,554978
"Bhātpāra",22.86643,88.40113,483129
"Bhatinda",30.20747,74.93893,242800
"Bharūch",21.69482,72.9805,153528
"Bharatpur",27.21731,77.49009,229384
"Bhāgalpur",25.24446,86.97183,361548
"Bhadreswar",22.82449,88.33841,121662
"Bhadrāvati",13.84846,75.70502,163903
"Bettiah",26.80229,84.50311,127008
"Bellary",15.14205,76.92398,336681
"Belgaum",15.85212,74.50447,428720
"Begusarai",25.41853,86.13389,103060
"Beāwar",26.10119,74.32028,130777
"Batāla",31.80921,75.20294,145468
"Bastī",26.78817,82.71617,115115
"Bārsi",18.23454,75.69275,110983
"Barnāla",30.37451,75.5487,105016
"Bareilly",28.34702,79.42193,745435
"Barddhamān",23.25572,87.85691,301725
"Bārāsat",22.72154,88.48198,298127
"Bārāsat",22.22516,88.45086,237783
"Baranagar",22.64132,88.37727,260072
"Bārākpur",22.76602,88.36336,148174
"Bānsbāria",22.95387,88.40098,108474
"Bānkura",23.23241,87.0716,133966
"Bangaon",23.04553,88.83084,111693
"Bengaluru",12.97194,77.59369,5104047
"Bānda",25.47758,80.33491,152218
"Bālurghāt",25.22099,88.77732,141404
"Bāli",22.64859,88.34115,296973
"Balasore",21.49266,86.93348,114321
"Baidyabāti",22.78498,88.32586,115504
"Bahraigh",27.57429,81.59474,182218
"Baharampur",24.10473,88.25155,180547
"Bahādurgarh",28.69287,76.93555,153613
"Bagaha",27.09918,84.09003,103855
"Badlapur",19.15516,73.26553,104636
"Azamgarh",26.06832,83.18358,116644
"Āvadi",13.1147,80.10981,250044
"Aurangabad",19.87757,75.34226,1016441
"Āsansol",23.68333,86.98333,504271
"Arrah",25.55629,84.66335,223676
"Anantapur",14.67784,77.60813,240442
"Ānand",22.55251,72.9552,138009
"Amroha",28.90314,78.46984,176253
"Amritsar",31.62234,74.87534,1092450
"Amrāvati",20.93333,77.75,603837
"Ambur",12.79163,78.71644,109873
"Ambattūr",13.09818,80.16152,341049
"Ambāla",30.36099,76.79782,146787
"Amarnāth",19.2,73.16667,217780
"Alwar",27.56246,76.625,283228
"Alleppey",9.49004,76.3264,176783
"Allahābād",25.44478,81.84322,1073438
"Alīgarh",27.88145,78.07464,753207
"Alandur",13.0025,80.20611,153775
"Akola",20.70957,76.9981,428857
"Ajmer",26.4521,74.63867,517911
"Aizawl",23.72894,92.71791,265331
"Ahmadnagar",19.09457,74.73843,367140
"Ahmedabad",23.02579,72.58727,3719710
"Āgra",27.18333,78.01667,1430055
"Agartala",23.83605,91.27939,203264
"Ādoni",15.62788,77.27495,163631
"Ādilābād",19.67203,78.5359,118526
"Achalpur",21.25665,77.51006,111278
"Abohar",30.14453,74.19552,130603
"Haldia",22.06046,88.10975,170695
"Nangi",22.50833,88.21528,440894
"Soyībug",34.07677,74.7057,104000
"Navi Mumbai",19.03681,73.01582,2600000
"Shivaji Nagar",18.53017,73.85263,1000000
"Greater Noida",28.49615,77.53601,293908
"Mohali",30.67995,76.72211,123484
"Noida",28.58,77.33,293908
"Singrauli",24.19973,82.67535,185580
"Jaigaon",26.84766,89.37558,158664
"Lal Bahadur Nagar",17.34769,78.55757,261987
"Malkajgiri",17.44781,78.52633,150000
"Gajuwaka",17.7,83.21667,258944
"Quthbullapur",17.50107,78.45818,225816
"Serilingampalle",17.49313,78.30196,150525
"Ashoknagar Kalyangarh",22.86416,88.63701,111475
"Ramagundam",18.755,79.474,235000
"Kultali",21.9,88.4,187942
"Umm Qaşr",30.0362,47.91951,107620
"Sīnah",36.80752,43.03831,128776
"Sāmarrā’",34.1959,43.88568,158508
"Kirkuk",35.46806,44.39222,601433
"Karbala",32.61603,44.02488,434450
"Erbil",36.19257,44.01062,932800
"Dihok",36.86709,42.98845,284000
"Baqubah",33.75403,44.60518,152550
"Baghdad",33.34058,44.40088,7216000
"Az Zubayr",30.39213,47.70175,122676
"As Sulaymānīyah",35.56496,45.4329,723170
"As Samawah",31.33198,45.2944,152890
"Ramadi",33.42056,43.30778,274539
"An Nāşirīyah",31.05799,46.25726,400249
"Najaf",32.02594,44.34625,482576
"Al Mawşil al Jadīdah",36.33306,43.1049,2065597
"Mosul",36.335,43.11889,1739800
"Al Kūt",32.5128,45.81817,315162
"Kufa",32.05114,44.44017,110000
"Al Ḩillah",32.46367,44.41963,289709
"Al Fāw",29.97421,48.47309,104569
"Al Fallūjah",33.34913,43.78599,190159
"Basrah",30.50852,47.7804,2600000
"Al ‘Amārah",31.83561,47.14483,323302
"Ad Dīwānīyah",31.99289,44.92552,318801
"Abū Ghurayb",33.30563,44.18477,900000
"Al Başrah al Qadīmah",30.50316,47.81507,2015483
"Āzādshahr",34.79049,48.57011,514102
"Kahrīz",34.3838,47.0553,766706
"Qarchak",35.42867,51.57544,251834
"Zanjān",36.6736,48.4787,357471
"Yazd",31.89722,54.3675,477905
"Varāmīn",35.3242,51.6457,179603
"Torbat-e Ḩeydarīyeh",35.27401,59.21949,125633
"Tehran",35.69439,51.42151,7153309
"Tabriz",38.08,46.2919,1424641
"Sirjan",29.45137,55.6809,207645
"Shiraz",29.61031,52.53113,1249942
"Shahr-e Kord",32.32556,50.86444,129153
"Semnān",35.57691,53.39205,124826
"Sāveh",35.0213,50.3566,175533
"Sari",36.56332,53.06009,255396
"Saqqez",36.24992,46.2735,151237
"Sanandaj",35.31495,46.99883,349176
"Sabzevar",36.2126,57.68191,226183
"Rasht",37.28077,49.58319,594590
"Rafsanjān",30.4067,55.9939,147680
"Qūchān",37.106,58.50955,111752
"Qom",34.6401,50.8764,900000
"Qazvin",36.26877,50.0041,333635
"Pārsābād",39.6482,47.9174,101661
"Orūmīyeh",37.55274,45.07605,577307
"Nīshābūr",36.21329,58.79575,220929
"Naz̧arābād",35.95411,50.60607,213388
"Mīāndoāb",36.96667,46.10961,132819
"Masjed Soleymān",31.9364,49.3039,111510
"Mashhad",36.31559,59.56796,2307177
"Marand",38.4329,45.7749,124191
"Malāyer",34.2969,48.8235,176573
"Mahābād",36.7631,45.7222,162434
"Kūhdasht",33.53335,47.60999,100208
"Khvoy",38.5503,44.9521,175370
"Khorramshahr",30.44079,48.18428,330606
"Khorramabad",33.48778,48.35583,329825
"Kermānshāh",34.31417,47.065,621100
"Kerman",30.28321,57.07879,577514
"Kāshān",33.98308,51.43644,272359
"Karaj",35.83266,50.99155,1448075
"Īlām",33.6374,46.4227,140940
"Hamadān",34.79922,48.51456,528256
"Gorgān",36.84165,54.44361,244937
"Gonbad-e Kāvūs",37.25004,55.16721,131416
"Shahrud",36.41819,54.97628,131889
"Bandar-e Būshehr",28.9684,50.8385,165377
"Būkān",36.521,46.2089,213331
"Borūjerd",33.8973,48.7516,251958
"Bojnūrd",37.47473,57.32903,192041
"Bīrjand",32.86628,59.22114,196982
"Bāneh",35.9975,45.8853,104799
"Bandar-e Anzalī",37.47257,49.4593,110826
"Bandar Abbas",27.1865,56.2808,352173
"Bābol",36.55132,52.67895,202796
"Ardabīl",38.2498,48.2933,410753
"Arāk",34.09174,49.68916,503647
"Āmol",36.46961,52.35072,199382
"Ahvaz",31.31901,48.6842,841145
"Abadan",30.3392,48.3043,370180
"Shāhreẕā",32.03389,51.87944,100790
"Najafābād",32.6344,51.3668,223450
"Khomeynī Shahr",32.6856,51.53609,277334
"Isfahan",32.65246,51.67462,1547164
"Zābol",31.0306,61.4949,121989
"Zahedan",29.4963,60.8629,551980
"Īrānshahr",27.20245,60.68476,131232
"Pasragad Branch",34.77772,48.47168,787878
"Reykjavík",64.13548,-21.89541,118918
"Reggio Calabria",38.11047,15.66129,169140
"Palermo",38.13205,13.33561,648260
"Messina",38.19394,15.55256,219948
"Catania",37.49223,15.07041,290927
"Cagliari",39.23054,9.11917,149257
"Vicenza",45.54672,11.5475,107129
"Verona",45.4299,10.98444,219103
"Trieste",45.64325,13.7903,187056
"Turin",45.07049,7.68682,870456
"Taranto",40.41639,17.25478,181082
"Salerno",40.67545,14.79328,125797
"Rome",41.89193,12.51133,2318895
"Rimini",44.05755,12.56528,118673
"Reggio nell'Emilia",44.69825,10.63125,133296
"Prato",43.87309,11.08278,181820
"Pescara",42.4584,14.20283,116596
"Perugia",43.1122,12.38878,120137
"Parma",44.79935,10.32618,146299
"Padova",45.40797,11.88586,203725
"Napoli",40.85631,14.24641,959470
"Monza",45.58005,9.27246,119618
"Modena",44.64783,10.92539,158886
"Milano",45.46427,9.18951,1236837
"Mestre",45.47152,12.24017,147662
"Livorno",43.54427,10.32615,153773
"Genoa",44.4264,8.91519,580223
"Foggia",41.45845,15.55188,137032
"Florence",43.77925,11.24626,349296
"Brescia",45.53558,10.21472,184826
"Bologna",44.49381,11.33875,366133
"Bergamo",45.69601,9.66721,114162
"Bari",41.11148,16.8554,277387
"Acilia-Castel Fusano-Ostia Antica",41.76337,12.33078,129362
"Spanish Town",17.99107,-76.95742,145018
"Portmore",17.95032,-76.88215,102861
"New Kingston",18.00747,-76.78319,583958
"Kingston",17.99702,-76.79358,937700
"Wādī as Sīr",31.9545,35.81831,181212
"Irbid",32.55556,35.85,307480
"Zarqa",32.07275,36.08796,792665
"Amman",31.95522,35.94503,1275857
"‘Ajlūn",32.33326,35.75279,125557
"Russeifa",32.01778,36.04639,268237
"Atsugi",35.44272,139.36931,229199
"Akashi",34.63333,134.98333,297279
"Zama",35.4879,139.39101,134671
"Yono",35.88333,139.63333,1077730
"Yonago",35.43333,133.33333,141368
"Yokosuka",35.28361,139.66722,428992
"Yokohama",35.43333,139.65,3574443
"Yokkaichi",34.96667,136.61667,295841
"Yatsushiro",32.5045,130.60066,104341
"Yao",34.61667,135.6,273213
"Yamaguchi",34.18333,131.46667,145515
"Yaizu",34.86877,138.31952,121057
"Utsunomiya",36.56667,139.88333,449865
"Urayasu",35.67056,139.88861,143758
"Uji",34.89044,135.80325,192925
"Ueda",36.40265,138.28161,126606
"Ube",33.94306,131.25111,173733
"Tsu",34.73333,136.51667,163461
"Toyota",35.08333,137.15,362383
"Toyonaka",34.78244,135.46932,384459
"Toyokawa",34.81667,137.4,120537
"Toyohashi",34.76667,137.38333,378374
"Toyama",36.7,137.21667,325532
"Tottori",35.5,134.23333,154098
"Tondabayashichō",34.50065,135.60211,132873
"Tokyo",35.6895,139.69171,8336599
"Tokuyama",34.05,131.81667,101133
"Tokushima",34.06667,134.56667,267345
"Tokorozawa",35.79916,139.46903,339435
"Nishi-Tokyo-shi",35.72526,139.5383,195164
"Takatsuki",34.84833,135.61678,354468
"Takasaki",36.33333,139.01667,240857
"Takarazuka",34.79936,135.35697,219789
"Takaoka",36.75,137.01667,170077
"Takamatsu",34.33333,134.05,334223
"Tajimi",35.31667,137.13333,107818
"Suzuka",34.88333,136.58333,191477
"Suita",34.76143,135.51567,351630
"Sōka",35.83643,139.79957,231445
"Shizuoka",34.98333,138.38333,701561
"Shimonoseki",33.95,130.95,245786
"Minato",34.2152,135.1501,375339
"Seto",35.23333,137.1,134246
"Sasebo",33.15917,129.72278,237444
"Sandachō",34.88444,135.22694,132858
"Sakata",38.91667,139.855,100446
"Sakai",34.58333,135.46667,782339
"Saga",33.23333,130.3,165236
"Oyama",36.3,139.8,159936
"Ōtsu",35,135.86667,298164
"Ōta",36.3,139.36667,152104
"Osaka",34.69374,135.50218,2592413
"Ōmuta",33.03333,130.45,131974
"Ōme",35.78389,139.24306,149323
"Okazaki",34.95,137.16667,352361
"Okayama",34.65,133.93333,639652
"Ōita",33.23333,131.6,448907
"Ōgaki",35.35,136.61667,150570
"Odawara",35.25556,139.15972,203035
"Numazu",35.1,138.86667,204318
"Noda",35.94897,139.86793,121411
"Nobeoka",32.58333,131.66667,121949
"Nishio",34.86667,137.05,103337
"Nishinomiya-hama",34.71562,135.33199,468925
"Niihama",33.96047,133.30522,123059
"Niigata",37.88637,139.00589,505272
"Nara-shi",34.68505,135.80485,367353
"Naha",26.21667,127.68333,300795
"Nagoya",35.18147,136.90641,2191279
"Nagasaki",32.75,129.88333,410204
"Nagareyama",35.8563,139.90266,156000
"Nagaoka",37.45,138.85,195318
"Nagano",36.65,138.18333,360176
"Musashino",35.70611,139.55944,137479
"Moriguchi",34.73333,135.56667,148350
"Miyazaki",31.91667,131.41667,311203
"Miyakonojō",31.73333,131.06667,130994
"Mitaka-shi",35.68351,139.55963,182901
"Mishima",35.11667,138.91667,113479
"Mino",34.82691,135.47057,129127
"Minamirinkan",35.49527,139.44279,224015
"Matsumoto",36.23333,137.96667,210667
"Matsue",35.48333,133.05,156811
"Matsudo",35.77995,139.90144,470277
"Matsubara",34.56667,135.55,130855
"Maebashi",36.4,139.08333,282711
"Machida",35.54028,139.45083,399969
"Kyoto",35.02107,135.75385,1459640
"Kusatsu",35.01667,135.96667,127680
"Kurume",33.31667,130.51667,238197
"Kure",34.23222,132.56658,196624
"Kurashiki",34.58333,133.76667,437581
"Kumamoto",32.80589,130.69181,680423
"Kumagaya",36.13497,139.39004,155813
"Koshigaya",35.89035,139.78916,317437
"Kōnan",35.33165,136.87042,100389
"Komatsu",36.40263,136.45088,109045
"Komaki",35.28333,136.91667,151025
"Kokubunji",35.70222,139.47556,118682
"Kōfu",35.66667,138.56667,190000
"Kochi",33.55,133.53333,335570
"Kobe",34.6913,135.183,1528478
"Kitakyushu",33.85181,130.85034,997536
"Kishiwada",34.46667,135.36667,205561
"Kisarazu",35.37472,139.9225,122524
"Kiryū",36.4,139.33333,110219
"Kawasaki",35.52056,139.71722,1306785
"Kawanishi",34.81667,135.41667,160520
"Kawaguchi",35.80521,139.71072,468565
"Kawagoe",35.90861,139.48528,337931
"Kasukabe",35.98308,139.74966,206915
"Kasugai",35.24762,136.97229,298589
"Kashiwa",35.86224,139.97732,340221
"Kashihara-shi",34.50896,135.7929,124521
"Kariya",34.98333,136.98333,139159
"Kanazawa",36.6,136.61667,458937
"Kamirenjaku",35.69423,139.55495,178739
"Kamakura",35.30889,139.55028,166016
"Kakogawachō-honmachi",34.76943,134.82905,271634
"Kakamigahara",35.41667,136.86667,132241
"Kagoshima",31.56667,130.55,555352
"Kadoma",34.7381,135.57442,131727
"Izumi",34.48333,135.43333,189085
"Iwatsuki",35.96474,139.69644,108833
"Iwakuni",34.16297,132.22,104004
"Itami",34.78427,135.40126,193524
"Isesaki",36.31667,139.2,130692
"Isehara",35.39932,139.31019,103401
"Inazawa",35.25,136.78333,102130
"Ikoma",34.68333,135.7,117601
"Iida",35.51965,137.82074,107111
"Ichinomiya",35.3,136.8,280331
"Ibaraki",34.81641,135.56828,273992
"Hōfu",34.05,131.56667,116925
"Hiroshima",34.4,132.45,1143841
"Hiratsuka",35.32785,139.33735,259052
"Hirakata",34.81352,135.64914,406331
"Hino",35.67306,139.40028,171777
"Himeji",34.81667,134.7,481493
"Hikone",35.25,136.25,110925
"Handa",34.88333,136.93333,116119
"Hamamatsu",34.7,137.73333,605098
"Hadano",35.37111,139.22361,174281
"Hachiōji",35.65583,139.32389,579399
"Gifu-shi",35.42291,136.76039,397714
"Honchō",35.70129,139.98648,560743
"Fukuyama",34.48333,133.36667,383298
"Fukuoka",33.6,130.41667,1392289
"Fukui-shi",36.06443,136.22257,248707
"Fukayachō",36.2,139.28333,106595
"Fujisawa",35.34926,139.47666,394624
"Fujinomiya",35.21667,138.61667,121515
"Fujieda",34.86667,138.26667,132859
"Fuji",35.16667,138.68333,240014
"Daitōchō",34.71378,135.62033,129521
"Chōfugaoka",35.65924,139.54837,212977
"Chikushino-shi",33.49631,130.5156,100353
"Chigasaki",35.33638,139.40434,231657
"Beppu",33.27945,131.49751,125065
"Ashikaga",36.33333,139.45,159671
"Anjō",34.95828,137.08054,178402
"Amagasaki",34.71667,135.41667,442173
"Ageoshimo",35.97145,139.61382,219401
"Okinawa",26.33583,127.80139,125483
"Sayama",35.85295,139.41212,160843
"Asaka",35.80472,139.60194,128058
"Shimotoda",35.815,139.6853,118731
"Wakayama",34.23333,135.16667,351000
"Matsuyama",33.83916,132.76574,443322
"Yamagata",38.23333,140.36667,254538
"Tsukuba",36.2,140.1,175589
"Sendai",38.26667,140.86667,1063103
"Sakura",35.71667,140.23333,182549
"Narita",35.78333,140.31667,100641
"Morioka",39.7,141.15,295172
"Mito",36.35,140.45,246538
"Kōriyama",37.4,140.38333,340560
"Katsuta",36.38333,140.53333,155968
"Iwaki",37.05,140.88333,357309
"Ishinomaki",38.41667,141.3,117233
"Ichihara",35.51667,140.08333,283531
"Hitachi",36.6,140.65,186307
"Fukushima",37.75,140.46667,294237
"Chiba",35.6,140.11667,919729
"Akita",39.71667,140.11667,320069
"Abiko",35.86667,140.01667,131771
"Akitashi",39.71667,140.1,325837
"Tomakomai",42.63694,141.60333,174806
"Sapporo",43.06667,141.35,1883027
"Otaru",43.18944,141.00222,143792
"Obihiro",42.91722,143.20444,173890
"Kushiro",42.975,144.37472,183612
"Kitami",43.80306,143.89083,113137
"Hirosaki",40.59306,140.4725,174972
"Hakodate",41.77583,140.73667,275730
"Hachinohe",40.5,141.5,239046
"Ebetsu",43.10806,141.55056,133953
"Asahikawa",43.77063,142.36489,356612
"Aomorishi",40.81667,140.73333,298394
"Neyagawa",34.76615,135.62759,238549
"Hitachi-Naka",36.39659,140.53479,156811
"Jōetsu",37.14828,138.23642,204137
"Saitama",35.90807,139.65657,1193350
"Higashimurayama-shi",35.75459,139.46852,150556
"Sendai",38.25759,140.8667,1063103
"Thika",-1.03326,37.06933,200000
"Nakuru",-0.28333,36.06667,259903
"Nairobi",-1.28333,36.81667,2750547
"Mombasa",-4.05466,39.66359,799668
"Malindi",-3.21799,40.11692,118265
"Kisumu",-0.10221,34.76171,216479
"Eldoret",0.52036,35.26993,218446
"Osh",40.52828,72.7985,200000
"Bishkek",42.87,74.59,900000
"Osh City",40.53957,72.81034,255900
"Phnom Penh",11.56245,104.91601,1573544
"Takeo",10.99081,104.78498,843931
"Siem Reap",13.36179,103.86056,139458
"Sihanoukville",10.60932,103.52958,156691
"Battambang",13.10271,103.19822,150444
"Wŏnsan",39.15278,127.44361,329207
"Songnim",38.75417,125.645,152425
"Sariwŏn",38.50722,125.75583,310100
"Pyongyang",39.03385,125.75432,3222000
"Namp’o",38.7375,125.40778,455000
"Kaesŏng",37.97083,126.55444,338155
"Hŭngnam",39.83167,127.61861,346082
"Hamhŭng",39.91833,127.53639,559056
"Haeju",38.04056,125.71472,222396
"Sinŭiju",40.10056,124.39806,288112
"Kanggye-si",40.96946,126.58523,209530
"Hyesan-si",41.40167,128.17778,192680
"Chongjin",41.79556,129.77583,327000
"Yangju",37.83311,127.06169,179923
"Wŏnju",37.35139,127.94528,243387
"Ulsan",35.53722,129.31667,962865
"Uijeongbu-si",37.7415,127.0474,479141
"Daejeon",36.32139,127.41972,1475221
"Daegu",35.87028,128.59111,2566540
"Suwon-si",37.29111,127.00889,1242724
"Suncheon",34.94808,127.48947,230796
"Seoul",37.566,126.9784,10349312
"Busan",35.10278,129.04028,3678555
"Bucheon-si",37.49889,126.78306,850731
"Pohang",36.03222,129.365,500000
"Osan",37.15222,127.07056,158978
"Moppo",34.79361,126.38861,268402
"Gyeongsan-si",35.82333,128.73778,129903
"Kyonju",35.84278,129.21167,155237
"Gwangju",35.15472,126.91556,1416938
"Guri-si",37.5986,127.1394,195236
"Kunsan",35.97861,126.71139,243406
"Gumi",36.1136,128.336,291006
"Goyang-si",37.65639,126.835,1073069
"Kimhae",35.23417,128.88111,356242
"Gimcheon",36.12176,128.11981,150000
"Kang-neung",37.75556,128.89611,180611
"Iksan",35.94389,126.95444,283501
"Incheon",37.45646,126.70515,2628000
"Icheon-si",37.27917,127.4425,196230
"Hwaseong-si",37.20682,126.8169,476297
"Chuncheon",37.87472,127.73417,209746
"Jeonju",35.82194,127.14889,711424
"Cheongju-si",36.63722,127.48972,634596
"Cheonan",36.8065,127.1522,365114
"Chinju",35.19278,128.08472,307242
"Jeju City",33.50972,126.52194,408364
"Changwon",35.22806,128.68111,550000
"Anyang-si",37.3925,126.92694,634367
"Ansan-si",37.32361,126.82194,650728
"Andong",36.56556,128.725,129319
"Yeosu",34.76278,127.66528,295538
"Tonghae",37.54389,129.10694,101128
"Seongnam-si",37.43861,127.13778,1031935
"Hanam",37.54,127.20556,134902
"Hwado",37.6525,127.3075,106358
"Kwangmyŏng",37.47722,126.86639,357545
"Seogwipo",33.25333,126.56181,155691
"Ḩawallī",29.33278,48.02861,164212
"As Sālimīyah",29.33389,48.07611,147649
"Al Aḩmadī",29.07694,48.08389,637411
"Şabāḩ as Sālim",29.25722,48.05722,139163
"Zhanaozen",43.34116,52.86192,103598
"Oral",51.23333,51.36667,200000
"Karagandy",49.83333,73.1658,451800
"Atyrau",47.11667,51.88333,180000
"Aqtöbe",50.27969,57.20718,262457
"Aktau",43.65,51.16667,147443
"Zhezqazghan",47.78333,67.76667,104357
"Taraz",42.9,71.36667,358153
"Temirtau",50.05494,72.96464,170600
"Taldykorgan",45.01556,78.37389,116558
"Taldyqorghan",45,77.91667,200000
"Shymkent",42.3,69.6,414032
"Semey",50.42675,80.26669,292780
"Rudnyy",52.9729,63.11677,124000
"Kyzylorda",44.85278,65.50917,300000
"Kostanay",53.21435,63.62463,210000
"Petropavl",54.86667,69.15,200920
"Pavlodar",52.28333,76.96667,329002
"Ust-Kamenogorsk",49.97143,82.60586,319067
"Kokshetau",53.28333,69.4,124444
"Ekibastuz",51.72371,75.32287,121470
"Astana",51.1801,71.44598,345604
"Almaty",43.25654,76.92848,2000900
"Kyzyl-Orda",44.8479,65.49989,300000
"Vientiane",17.96667,102.6,196731
"Tripoli",34.43667,35.84972,229398
"Tyre",33.27333,35.19389,135204
"Sidon",33.55993,35.37564,163554
"Ra’s Bayrūt",33.9,35.48333,1251739
"Beirut",33.88894,35.49442,1916100
"Nabatîyé et Tahta",33.37889,35.48389,120000
"Trincomalee",8.5711,81.2335,108420
"Pita Kotte",6.8905,79.9015,118179
"Negombo",7.2083,79.8358,137223
"Dehiwala-Mount Lavinia",6.84019,79.87116,219827
"Moratuwa",6.773,79.8816,185031
"Sri Jayewardenepura Kotte",6.88297,79.90708,115826
"Kandy",7.2955,80.6356,111701
"Kalmunai",7.40902,81.83472,100171
"Jaffna",9.66845,80.00742,169102
"Galkissa",6.8293,79.863,215941
"Colombo",6.93194,79.84778,648034
"Mount Lavinia",6.83947,79.86451,219827
"Monrovia",6.30054,-10.7969,939524
"Maseru",-29.31667,27.48333,118355
"Vilnius",54.68916,25.2798,542366
"Šiauliai",55.93333,23.31667,130587
"Panevėžys",55.73333,24.35,117395
"Klaipėda",55.71722,21.1175,192307
"Kaunas",54.9,23.9,374643
"Riga",56.946,24.10589,742572
"Daugavpils",55.88333,26.53333,111564
"Tobruk",32.08361,23.97639,121052
"Benghazi",32.11486,20.06859,650629
"Ajdabiya",30.75545,20.22625,134358
"Zliten",32.46739,14.56874,109972
"Tarhuna",32.43501,13.6332,210697
"Tripoli",32.87519,13.18746,1150989
"Sirte",31.20892,16.58866,128123
"Şabrātah",32.79335,12.48845,102038
"Sabhā",27.03766,14.42832,130000
"Mişrātah",32.37535,15.09254,386120
"Zawiya",32.75222,12.72778,186123
"Az Zāwīyah",32.7571,12.72764,200000
"Al Khums",32.64861,14.26191,201943
"Al Jadīd",27.05,14.4,126386
"Tétouan",35.57845,-5.36837,326261
"Taza",34.21,-4.01,141890
"Tangier",35.76727,-5.79975,688356
"Settat",33.00103,-7.61662,119082
"Sale",34.0531,-6.79846,903485
"Safi",32.29939,-9.23718,288163
"Rabat",34.01325,-6.83255,1655753
"Oujda",34.68139,-1.90858,405253
"Nador",35.16813,-2.93352,129260
"Mohammedia",33.68607,-7.38298,187708
"Meknès",33.89352,-5.54727,545705
"Marrakesh",31.63416,-7.99994,839296
"Larache",35.19321,-6.15572,109294
"Ksar El Kebir",35.00044,-5.90378,108753
"Khouribga",32.88108,-6.9063,167673
"Kenitra",34.26101,-6.5802,366570
"Fès al Bali",34.0701,-4.95473,156000
"Fes",34.03313,-5.00028,964891
"El Jadida",33.25492,-8.50602,147549
"Casablanca",33.58831,-7.61138,3144909
"Beni Mellal",32.33725,-6.34983,166399
"Khemisset",33.82404,-6.06627,106991
"Al Hoceïma",35.25165,-3.93723,395644
"Agadir",30.42018,-9.59815,698310
"Tiraspolul",46.84274,29.62909,157000
"Chişinău",47.00556,28.8575,635994
"Bender",46.83156,29.47769,110175
"Bălţi",47.76314,27.92932,125000
"Podgorica",42.44111,19.26361,136473
"Toamasina",-18.1492,49.40234,206373
"Toliara",-23.35,43.66667,115319
"Mahajanga",-15.71667,46.31667,154657
"Fianarantsoa",-21.45267,47.08569,167227
"Antsirabe",-19.86586,47.03333,186253
"Antananarivo",-18.91368,47.53613,1391433
"Skopje",41.99646,21.43141,474889
"Sikasso",11.31755,-5.66654,144786
"Mopti",14.4843,-4.18296,108456
"Bamako",12.65,-8,1297281
"Yenangyaung",20.46504,94.8712,110553
"Taungoo",18.94291,96.43408,106945
"Thaton",16.91867,97.37001,123727
"Dawei",14.0823,98.19151,136783
"Taunggyi",20.78919,97.03776,160115
"Sittwe",20.14624,92.89835,177743
"Yangon",16.80528,96.15611,4477638
"Pyay",18.82464,95.22216,135308
"Bago",17.33521,96.48135,244376
"Pakokku",21.33489,95.08438,126938
"Myingyan",21.46002,95.3884,141713
"Mawlamyine",16.49051,97.62825,438861
"Monywa",22.10856,95.13583,182011
"Myeik",12.43954,98.60028,173298
"Meiktila",20.87776,95.85844,177442
"Pyin Oo Lwin",22.03501,96.45683,117303
"Mandalay",21.97473,96.08359,1208099
"Lashio",22.9359,97.7498,131016
"Hinthada",17.64944,95.45705,134947
"Pathein",16.77919,94.73212,237089
"Nay Pyi Taw",19.745,96.12972,925000
"Ulan Bator",47.90771,106.88324,844818
"Macau",22.20056,113.54611,520400
"Nouakchott",18.08581,-15.9785,661400
"Vacoas",-20.29806,57.47833,110000
"Port Louis",-20.16194,57.49889,155226
"Male",4.1748,73.50888,103693
"Mzuzu",-11.46556,34.02071,175345
"Lilongwe",-13.96692,33.78725,646750
"Blantyre",-15.78499,35.00854,584877
"Gustavo A. Madero",22.8694,-98.75886,1185772
"Xochimilco",19.25785,-99.10513,404458
"San Miguel Xico Viejo",19.27022,-98.93588,365777
"Álvaro Obregón",19.35867,-99.20329,727034
"Villahermosa",17.98689,-92.93028,362401
"Gustavo A. Madero",19.49016,-99.10978,1193161
"Veracruz",19.18095,-96.1429,568313
"Tuxtla Gutiérrez",16.75973,-93.11308,481128
"Tuxpan de Rodríguez Cano",20.95773,-97.40798,134394
"Tulancingo",20.08363,-98.36332,102383
"Toluca",19.28786,-99.65324,505881
"Tlalpan",19.29707,-99.16787,607545
"Tlalnepantla",19.54005,-99.19538,715767
"Tlahuac",19.28348,-99.00317,344106
"Texcoco de Mora",19.51194,-98.88293,115378
"Cuautitlán Izcalli",19.64388,-99.21598,475179
"Temapache",21.06611,-97.64207,101558
"Tehuacán",18.46148,-97.39282,241429
"Tapachula",14.90385,-92.25749,197961
"Tantoyuca",21.35064,-98.2257,103610
"Tampico",22.27817,-97.86772,309003
"Santa María Chimalhuacán",19.42155,-98.95038,525389
"San Pablo de las Salinas",19.6667,-99.09527,173557
"San Juan del Río",20.3878,-99.99605,118173
"San Cristóbal de las Casas",16.73176,-92.64126,128996
"Reynosa",26.08061,-98.28835,498654
"Puebla",19.04334,-98.20193,1590256
"Poza Rica de Hidalgo",20.53315,-97.45946,174526
"Playa del Carmen",20.6274,-87.07987,100383
"Pachuca de Soto",20.11697,-98.73329,319581
"Orizaba",18.85101,-97.10084,121348
"Oaxaca de Juárez",17.06542,-96.72365,262566
"Nuevo Laredo",27.47629,-99.51639,349550
"Nicolás Romero",19.63658,-99.30682,245383
"Naucalpan de Juárez",19.47851,-99.23963,846185
"Minatitlan",17.99925,-94.55441,150895
"Milpa Alta",19.19251,-99.02317,115895
"Metepec",19.25934,-99.60175,172982
"Mérida",20.97537,-89.61696,717175
"Heroica Matamoros",25.87972,-97.50417,449815
"Martínez de la Torre",20.07082,-97.06078,100377
"Magdalena Contreras",19.33212,-99.21118,228927
"Los Reyes La Paz",19.36357,-98.97707,251168
"Las Margaritas",16.31265,-91.98107,103403
"Jiutepec",18.88139,-99.17778,162427
"Xalapa de Enríquez",19.53124,-96.91589,425148
"Ixtapaluca",19.31556,-98.88284,351001
"Iztapalapa",19.35738,-99.0671,1820888
"Iztacalco",19.39528,-99.09778,384326
"Iguala de la Independencia",18.34928,-99.53936,112106
"Ecatepec",19.61725,-99.06601,1806226
"Cuernavaca",18.9261,-99.23075,343769
"Cuautla Morelos",18.80459,-98.94555,146178
"Cuajimalpa",19.35993,-99.29388,173625
"Coyoacán",19.3467,-99.16174,628063
"Córdoba",18.8842,-96.92559,134403
"Coatzacoalcos",18.13346,-94.44242,230717
"Coacalco",19.63453,-99.1005,313405
"Ciudad Victoria",23.74174,-99.14599,269923
"Ciudad Valles",21.98333,-99.01667,109504
"Ciudad Nezahualcoyotl",19.40061,-99.01483,1232220
"Ciudad Madero",22.27228,-97.83623,192736
"Mexico City",19.42847,-99.12766,12294193
"Ciudad del Carmen",18.64592,-91.82991,141308
"Cholula",19.06406,-98.30352,151667
"Chilpancingo de los Bravos",17.5506,-99.50578,165250
"Chetumal",18.51413,-88.30381,134412
"Chalco de Díaz Covarrubias",19.26174,-98.89775,163996
"Cancún",21.17429,-86.84656,542043
"Campeche",19.83803,-90.5277,205212
"Azcapotzalco",19.48698,-99.18594,425298
"Ciudad López Mateos",19.58547,-99.26035,521034
"Acapulco de Juárez",16.86336,-99.8901,652136
"Tampico",22.25528,-97.86861,297284
"Benito Juarez",19.3984,-99.15766,355017
"Venustiano Carranza",19.44286,-99.09724,447459
